step,time_s,phase,acc_x,acc_y,acc_z,gyro_x,gyro_y,gyro_z,pos_x,pos_y,pos_z,yaw,pitch,roll,latency_ms
0,0.0873,s1_north_t1_move,-0.0054,0.0047,-1.0116,-0.0051,0.0024,0.0026,0.0,0.0,0.0,2.59,-0.25,-0.6,87.32
1,0.2214,s1_north_t1_move,0.1197,-0.0011,-1.0072,-0.0171,0.0253,0.0353,0.0021,-0.0001,0.0,2.61,-0.23,-0.55,16.29
2,0.3328,s1_north_t1_move,-0.0204,-0.0181,-1.011,-0.0308,-0.0258,-0.0147,0.0146,0.0002,0.0,2.56,-0.29,-0.61,3.94
3,0.4495,s1_north_t1_move,0.1421,0.0072,-1.0157,-0.0068,-0.0036,0.0004,0.0181,0.0002,0.0,2.59,-0.21,-0.62,0.0
4,0.5866,s1_north_t1_move,-0.1484,-0.0005,-1.0152,-0.0156,-0.0053,-0.0029,0.0356,0.0017,0.0,2.6,-0.25,-0.6,15.75
5,1.102,s1_north_t1_move,0.0848,-0.0201,-1.0179,-0.0132,-0.0039,0.0205,0.039,0.0019,0.0,2.62,-0.24,-0.64,406.58
6,1.3305,s1_north_t1_move,0.0572,-0.0017,-1.01,0.0091,0.0135,0.0176,0.0785,0.0042,0.0,2.52,-0.27,-0.59,113.23
7,1.452,s1_north_t1_move,0.1247,0.0103,-1.0145,-0.0002,0.0048,0.0109,0.1041,0.0048,0.0,2.55,-0.24,-0.62,4.05
8,1.5826,s1_north_t1_move,0.1247,0.0103,-1.0145,-0.0002,0.0048,0.0109,0.1118,0.0051,0.0,2.55,-0.24,-0.62,11.2
9,1.7139,s1_north_t1_move,-0.1031,0.0253,-1.0068,0.0132,-0.0205,-0.0332,0.1258,0.0056,0.0,2.57,-0.29,-0.67,16.43
10,1.8151,s1_north_t1_move,0.0703,0.0019,-1.0031,-0.043,-0.0019,0.0122,0.1437,0.0071,0.0,2.62,-0.31,-0.69,0.0
11,1.9355,s1_north_t1_move,-0.1368,-0.011,-1.0073,0.0021,0.0076,-0.0164,0.1528,0.0076,0.0,2.58,-0.25,-0.64,0.0
12,2.105,s1_north_t1_move,-0.0734,0.0308,-1.0025,-0.0008,-0.0215,-0.0124,0.174,0.0078,0.0,2.57,-0.25,-0.66,48.45
13,2.2436,s1_north_t1_move,-0.0734,0.0308,-1.0025,-0.0008,-0.0215,-0.0124,0.174,0.0078,0.0,2.57,-0.27,-0.63,16.03
14,2.3667,s1_north_t1_move,-0.1345,0.0025,-1.0064,0.0003,0.0131,0.0228,0.2014,0.0094,0.0,2.6,-0.29,-0.63,15.65
15,2.5032,s1_north_t1_move,0.1034,0.0061,-1.0199,-0.0196,0.0121,-0.0206,0.2083,0.0098,0.0,2.59,-0.2,-0.64,16.13
16,2.6117,s1_north_t1_move,-0.033,-0.02,-1.0009,-0.002,-0.015,0.0228,0.2083,0.0098,0.0,2.54,-0.22,-0.56,0.0
17,2.8842,s1_north_t1_move,-0.0355,0.0091,-1.0079,-0.0136,0.0145,-0.0057,0.2339,0.0108,0.0,2.63,-0.13,-0.66,150.91
18,3.0208,s1_north_t1_move,0.0058,0.0181,-1.0128,-0.0204,0.0142,-0.0033,0.2545,0.0121,0.0,2.61,-0.08,-0.66,31.79
19,3.1342,s1_north_t1_move,-0.0232,0.0338,-1.01,0.0419,-0.008,-0.0455,0.2718,0.0143,0.0,2.66,-0.11,-0.61,0.0
20,3.2573,s1_north_t1_move,-0.0232,0.0338,-1.01,0.0419,-0.008,-0.0455,0.2718,0.0143,0.0,2.66,-0.11,-0.61,4.39
21,3.3998,s1_north_t1_move,-0.0744,0.0277,-1.0089,-0.0132,0.0056,-0.0526,0.2899,0.0158,0.0,2.54,-0.07,-0.7,31.59
22,3.52,s1_north_t1_move,0.0109,-0.0139,-1.0087,-0.0288,0.0038,-0.0009,0.3091,0.0175,0.0,2.58,-0.01,-0.72,16.06
23,3.6473,s1_north_t1_move,-0.0804,-0.007,-1.0104,-0.0105,0.0069,-0.0027,0.3135,0.0176,0.0,2.57,0.01,-0.74,15.73
24,3.7584,s1_north_t1_move,0.1018,0.0074,-1.0144,-0.0109,0.0004,0.0031,0.3135,0.0176,0.0,2.64,0.07,-0.76,4.23
25,3.8829,s1_north_t1_move,0.0261,0.0084,-1.0148,-0.0137,0.011,-0.0268,0.3305,0.0184,0.0,2.66,0.03,-0.73,10.84
26,3.9953,s1_north_t1_move,0.02,0.0151,-1.0079,0.0048,0.0016,-0.0075,0.3375,0.0184,0.0,2.55,0.1,-0.75,0.0
27,4.1161,s1_north_t1_move,0.0736,0.0142,-1.016,-0.006,0.0064,-0.0127,0.3503,0.0188,0.0,2.56,0.08,-0.76,0.0
28,4.2393,s1_north_t1_move,-0.0459,-0.0089,-1.01,-0.0063,-0.0098,0.0227,0.3583,0.0192,0.0,2.53,0.12,-0.78,2.28
29,4.3749,s1_north_t1_move,-0.0071,-0.0044,-1.0069,0.0014,0.0127,0.0008,0.3645,0.0193,0.0,2.59,0.08,-0.79,15.64
30,4.4982,s1_north_t1_move,0.0452,-0.0005,-1.0191,0.0033,-0.0075,0.0122,0.3645,0.0193,0.0,2.58,0.11,-0.78,0.0
31,4.6456,s1_north_t1_move,0.0716,0.0291,-1.0109,-0.0094,0.0045,-0.0178,0.3788,0.0194,0.0,2.67,0.09,-0.73,37.17
32,4.7651,s1_north_t1_move,-0.0557,0.0038,-1.0064,-0.0054,0.004,0.0018,0.3854,0.0196,0.0,2.67,0.13,-0.77,17.52
33,4.8794,s1_north_t1_move,0.0228,0.02,-1.0074,-0.0082,0.0139,-0.0294,0.3892,0.0199,0.0,2.5,0.13,-0.78,0.0
34,4.9908,s1_north_t1_move,0.0037,-0.0015,-1.0119,0.014,-0.0047,0.024,0.393,0.0198,0.0,2.49,0.12,-0.7,0.0
35,5.1196,s1_north_t1_move,0.0332,0.0037,-1.0143,-0.0022,-0.0039,0.0312,0.4008,0.0193,0.0,2.48,0.12,-0.68,0.0
36,5.2392,s1_north_t1_move,0.0332,0.0037,-1.0143,-0.0022,-0.0039,0.0312,0.4008,0.0193,0.0,2.64,0.13,-0.67,0.0
37,5.3609,s1_north_t1_move,0.0042,0.0051,-1.0113,-0.0134,0.005,-0.0154,0.4096,0.0198,0.0,2.72,0.14,-0.75,15.71
38,5.6212,s1_north_t1_move,0.0074,0.0039,-1.0106,-0.0048,-0.0021,-0.0145,0.4127,0.0196,0.0,2.58,0.13,-0.79,144.49
39,5.834,s1_north_t1_move,0.0019,0.0055,-1.0111,-0.0004,-0.0022,-0.0029,0.4179,0.0196,0.0,2.57,0.12,-0.78,95.72
40,5.9613,s1_north_t1_move,-0.0126,0.0046,-1.0104,0.0039,-0.0012,0.0074,0.4244,0.0206,0.0,2.56,0.08,-0.74,5.62
41,6.1411,s1_north_t1_move,0.0074,0.0141,-1.0109,-0.001,0.0043,-0.016,0.4259,0.0206,0.0,2.59,0.06,-0.71,65.02
42,6.2619,s1_north_t1_move,0.0255,-0.0092,-1.0187,-0.0079,0.0029,0.0104,0.4281,0.0204,0.0,2.57,0.06,-0.7,5.7
43,6.3746,s1_north_t1_move,-0.0233,-0.0088,-1.0128,-0.0087,-0.0041,0.0088,0.4308,0.0204,0.0,2.6,0.05,-0.71,0.0
44,6.4957,s1_north_t1_move,0.0179,0.0054,-1.0142,-0.0117,-0.0022,0.0004,0.432,0.0202,0.0,2.63,0.06,-0.74,0.0
45,6.6238,s1_north_t1_move,0.0003,-0.0022,-1.0111,-0.0055,0.0014,0.01,0.432,0.0202,0.0,2.63,0.06,-0.74,16.02
46,6.7294,s1_north_t1_move,-0.0018,-0.0031,-1.0111,-0.004,0.0024,0.0048,0.4351,0.0199,0.0,2.61,0.07,-0.8,0.0
47,6.8505,s1_north_t1_move,-0.0018,-0.0031,-1.0111,-0.004,0.0024,0.0048,0.4362,0.0201,0.0,2.61,0.07,-0.8,0.0
48,6.9724,s1_north_t1_move,-0.0195,-0.0051,-1.0106,-0.0033,-0.0017,0.008,0.4392,0.0198,0.0,2.59,0.06,-0.8,0.0
49,7.1491,s1_north_t1_move,0.0073,0.0135,-1.013,-0.0051,-0.0021,-0.0105,0.44,0.0196,0.0,2.6,0.05,-0.8,48.07
50,7.4926,s1_north_t1_move,0.0208,0.0007,-1.013,-0.0032,0.0007,0.0008,0.4423,0.0194,0.0,2.55,0.04,-0.79,224.17
51,7.6243,s1_north_t1_move,-0.008,0.0093,-1.0111,-0.0014,-0.0056,-0.0109,0.4454,0.0197,0.0,2.56,0.01,-0.77,21.08
52,7.7454,s1_north_t1_move,-0.008,0.0093,-1.0111,-0.0014,-0.0056,-0.0109,0.4454,0.0197,0.0,2.56,0.01,-0.77,19.11
53,7.8782,s1_north_t1_move,-0.0162,0.0015,-1.0124,-0.0054,-0.0029,0.0045,0.4481,0.0195,0.0,2.64,-0.0,-0.75,15.78
54,8.0017,s1_north_t1_stop,-0.0307,-0.0031,-1.0127,-0.0112,0.0013,-0.0108,0.4493,0.0191,0.0,2.62,-0.02,-0.74,15.78
55,8.1155,s1_north_t1_stop,-0.0232,0.0027,-1.0123,-0.0059,0.0001,-0.0015,0.4502,0.0189,0.0,2.61,-0.02,-0.75,8.04
56,8.2449,s1_north_t1_stop,-0.0133,-0.0053,-1.0122,-0.0066,0.0026,0.0093,0.448,0.0185,0.0,2.61,-0.02,-0.75,15.68
57,8.3512,s1_north_t1_stop,0.0014,0.0037,-1.0109,-0.009,0.0022,-0.0024,0.4453,0.0183,0.0,2.62,-0.0,-0.76,0.0
58,8.4721,s1_north_t1_stop,0.0021,0.0088,-1.0116,-0.009,0.0032,-0.0023,0.4429,0.0177,0.0,2.63,0.01,-0.79,0.0
59,8.5931,s1_north_t1_stop,-0.0008,0.0028,-1.0117,-0.0068,0.0041,0.0032,0.4403,0.0173,0.0,2.63,0.02,-0.81,0.0
60,8.7146,s1_north_t1_stop,0.0045,0.005,-1.0127,-0.0069,0.0017,0.0043,0.4373,0.017,0.0,2.68,0.04,-0.86,0.0
61,8.8503,s1_north_t1_stop,0.0139,0.005,-1.0111,-0.0027,0.0013,0.0081,0.4341,0.0173,0.0,2.69,0.04,-0.87,16.24
62,8.9851,s1_north_t1_stop,0.0169,0.005,-1.0121,-0.0056,-0.0004,0.0007,0.4343,0.0173,0.0,2.69,0.04,-0.88,15.74
63,9.1703,s1_north_t2_move,-0.0056,0.0046,-1.0118,-0.0056,-0.002,-0.0003,0.4351,0.017,0.0,2.69,0.04,-0.88,70.54
64,9.5221,s1_north_t2_move,-0.026,0.0079,-0.9984,0.0062,0.0288,0.0042,0.4348,0.0174,0.0,2.73,0.03,-0.89,241.96
65,9.717,s1_north_t2_move,0.0004,-0.0007,-1.0113,-0.0032,0.0067,0.0193,0.437,0.0178,0.0,2.71,0.03,-0.88,76.0
66,9.9347,s1_north_t2_move,-0.0088,0.006,-1.0124,-0.0043,-0.0016,-0.0084,0.4396,0.0182,0.0,2.68,0.04,-0.86,96.29
67,10.1734,s1_north_t2_move,-0.0026,-0.0093,-1.0134,-0.0046,0.0101,0.0244,0.4408,0.0188,0.0,2.69,0.04,-0.85,133.86
68,10.344,s1_north_t2_move,0.0027,0.0241,-1.0133,-0.0053,-0.0036,-0.0339,0.4415,0.0184,0.0,2.68,0.04,-0.84,64.2
69,10.5378,s1_north_t2_move,-0.0,-0.013,-1.0124,-0.0022,0.0039,0.022,0.4431,0.0179,0.0,2.64,0.04,-0.83,80.01
70,10.7572,s1_north_t2_move,0.0,0.0249,-1.0079,0.0012,0.0049,-0.0135,0.4451,0.0184,0.0,2.71,0.04,-0.8,95.67
71,10.8825,s1_north_t2_move,-0.0158,0.0005,-1.0153,-0.0005,0.0056,0.0051,0.4471,0.0192,0.0,2.76,0.03,-0.78,16.36
72,11.1771,s1_north_t2_move,-0.0266,-0.0197,-1.014,0.0006,0.0037,-0.0038,0.4512,0.0197,0.0,2.72,0.01,-0.75,176.33
73,11.3023,s1_north_t2_move,-0.0401,-0.0196,-1.0106,0.0015,-0.0098,0.0032,0.4552,0.0198,0.0,2.73,0.03,-0.72,17.33
74,11.4103,s1_north_t2_move,0.0222,0.0032,-1.0139,-0.0075,0.003,0.0216,0.4576,0.0208,0.0,2.76,0.02,-0.73,0.0
75,11.5413,s1_north_t2_move,-0.0215,-0.0178,-1.0124,-0.0076,-0.0041,0.0049,0.4594,0.0212,0.0,2.76,0.02,-0.73,9.28
76,12.1871,s1_north_t2_move,-0.0079,-0.0311,-1.011,-0.0144,0.0124,-0.0312,0.4617,0.0218,0.0,2.67,0.03,-0.76,527.37
77,12.3223,s1_north_t2_move,-0.0245,0.0216,-1.006,0.0015,0.0132,0.0059,0.4769,0.0279,0.0,2.73,0.07,-0.73,17.04
78,12.43,s1_north_t2_move,0.0326,0.0225,-1.0109,0.0045,-0.0053,-0.0122,0.4804,0.0295,0.0,2.7,0.07,-0.72,0.0
79,12.552,s1_north_t2_move,-0.0337,-0.021,-1.0109,-0.0043,-0.0052,-0.001,0.4814,0.0304,0.0,2.69,0.09,-0.68,0.0
80,12.6813,s1_north_t2_move,0.0447,0.0295,-1.0109,-0.0075,-0.0057,-0.0214,0.4829,0.0311,0.0,2.81,0.09,-0.68,7.72
81,12.8105,s1_north_t2_move,-0.0189,-0.0059,-1.0097,-0.0044,0.0072,-0.03,0.4829,0.0311,0.0,2.67,0.06,-0.7,16.02
82,12.9318,s1_north_t2_move,0.0065,0.0226,-1.0085,-0.0073,0.0049,0.0072,0.4871,0.0331,0.0,2.61,0.04,-0.69,0.0
83,13.0556,s1_north_t2_move,-0.0083,-0.001,-1.0091,0.0185,0.0106,-0.0527,0.4928,0.0368,0.0,2.65,0.04,-0.63,0.0
84,13.1815,s1_north_t2_move,-0.0083,-0.001,-1.0091,0.0185,0.0106,-0.0527,0.4928,0.0368,0.0,2.64,0.08,-0.57,5.88
85,13.418,s1_north_t2_move,0.0041,0.0027,-1.0084,-0.0082,-0.0007,0.02,0.4958,0.0387,0.0,2.74,0.09,-0.58,120.71
86,13.6224,s1_north_t2_move,0.0387,0.0601,-1.0082,-0.0117,-0.0055,-0.0497,0.4999,0.0413,0.0,2.61,0.06,-0.6,103.21
87,14.0274,s1_north_t2_move,0.023,0.0002,-1.0086,0.003,0.0025,0.0458,0.5033,0.0435,0.0,2.55,0.11,-0.53,303.88
88,14.1633,s1_north_t2_move,0.005,0.024,-1.0118,-0.0127,-0.0095,-0.0932,0.5131,0.048,0.0,2.58,0.1,-0.58,16.13
89,14.2849,s1_north_t2_move,-0.0166,-0.0085,-1.0103,0.0083,-0.021,0.0493,0.5173,0.051,0.0,2.65,0.12,-0.53,13.66
90,14.3916,s1_north_t2_move,0.014,0.0068,-1.0084,0.0032,-0.0089,0.029,0.5223,0.054,0.0,2.72,0.13,-0.54,0.0
91,15.0459,s1_north_t2_move,0.014,0.0068,-1.0084,0.0032,-0.0089,0.029,0.5223,0.054,0.0,2.72,0.1,-0.53,526.98
92,15.1837,s1_north_t2_move,0.0311,0.0209,-1.014,-0.0123,0.0026,0.0159,0.5396,0.0648,0.0,2.67,0.08,-0.58,16.26
93,15.2909,s1_north_t2_move,0.0176,0.0233,-1.0138,-0.0103,0.0127,0.0078,0.5438,0.0671,0.0,2.7,0.09,-0.59,0.0
94,15.4111,s1_north_t2_move,0.0176,0.0233,-1.0138,-0.0103,0.0127,0.0078,0.5461,0.0689,0.0,2.78,0.09,-0.59,0.0
95,15.5353,s1_north_t2_move,-0.0071,-0.0009,-1.0157,-0.0051,-0.0015,-0.0052,0.5512,0.0723,0.0,2.74,0.11,-0.57,4.83
96,15.6546,s1_north_t2_move,0.0156,0.0173,-1.0111,-0.0038,0.0007,-0.0097,0.5549,0.0737,0.0,2.63,0.12,-0.54,0.0
97,15.7757,s1_north_t2_move,-0.0134,-0.0215,-1.0113,-0.0057,0.0052,-0.0007,0.5574,0.074,0.0,2.63,0.12,-0.54,0.0
98,15.8934,s1_north_t2_move,-0.0297,0.0138,-1.0101,-0.0049,0.0121,-0.0303,0.5623,0.0752,0.0,2.7,0.11,-0.55,0.0
99,16.0244,s1_north_t2_move,-0.0297,0.0138,-1.0101,-0.0049,0.0121,-0.0303,0.5623,0.0752,0.0,2.71,0.1,-0.55,17.05
100,16.2128,s1_north_t2_move,0.0354,0.0265,-1.0116,-0.0084,-0.0068,0.004,0.566,0.0771,0.0,2.74,0.09,-0.53,85.62
101,16.3434,s1_north_t2_move,-0.0367,0.0073,-1.0108,-0.0118,-0.0102,-0.0255,0.5715,0.0781,0.0,2.59,0.1,-0.52,16.3
102,16.4509,s1_north_t2_move,0.0245,-0.0021,-1.0049,-0.0062,0.0072,0.0137,0.5735,0.0781,0.0,2.6,0.12,-0.52,0.0
103,16.5979,s1_north_t2_move,-0.0124,0.0512,-1.0084,-0.0056,0.0065,-0.0097,0.5801,0.0808,0.0,2.69,0.12,-0.55,26.48
104,16.7236,s1_north_t2_move,0.0255,0.0118,-1.0128,-0.0086,-0.0114,0.001,0.5823,0.0809,0.0,2.75,0.12,-0.57,10.41
105,16.8454,s1_north_t2_move,0.0056,0.0265,-1.0086,-0.0082,0.0028,-0.0381,0.589,0.0824,0.0,2.59,0.13,-0.56,10.08
106,16.9767,s1_north_t2_move,0.0169,0.0248,-1.011,-0.0003,-0.0093,0.0458,0.5931,0.0835,0.0,2.53,0.14,-0.54,15.99
107,17.1176,s1_north_t2_move,0.0169,0.0248,-1.011,-0.0003,-0.0093,0.0458,0.5931,0.0835,0.0,2.76,0.12,-0.46,22.61
108,17.2222,s1_north_t2_move,0.0053,0.0216,-1.0137,-0.0107,0.0009,-0.0236,0.5991,0.0853,0.0,2.88,0.1,-0.45,0.0
109,17.7074,s1_north_t2_move,0.0072,-0.0145,-1.0138,-0.0158,0.0035,-0.0052,0.607,0.0864,0.0,2.66,0.07,-0.5,365.68
110,17.8305,s1_north_t2_move,0.0011,-0.001,-1.0135,-0.0076,-0.0045,-0.0228,0.6188,0.0879,0.0,2.75,0.15,-0.51,2.0
111,17.9505,s1_north_t2_move,0.0436,0.0006,-1.0178,0.0078,-0.0081,0.0221,0.621,0.0886,0.0,2.66,0.18,-0.54,0.0
112,18.071,s1_north_t2_move,-0.0563,-0.0658,-1.0135,0.008,0.0037,0.0119,0.6268,0.0914,0.0,2.52,0.13,-0.48,0.0
113,18.2015,s1_north_t2_move,-0.0563,-0.0658,-1.0135,0.008,0.0037,0.0119,0.6268,0.0914,0.0,2.57,0.11,-0.45,11.5
114,18.325,s1_north_t2_move,-0.0099,0.0084,-1.0093,0.001,0.0005,-0.0051,0.6336,0.0925,0.0,2.76,0.12,-0.45,15.94
115,18.4293,s1_north_t2_move,-0.0127,-0.012,-1.0099,-0.0045,0.0058,0.012,0.6365,0.0922,0.0,2.79,0.15,-0.46,0.0
116,18.5522,s1_north_t2_move,0.0176,0.0047,-1.0088,-0.0096,0.0104,-0.0061,0.6395,0.0924,0.0,2.79,0.17,-0.49,0.0
117,18.6804,s1_north_t2_move,-0.0096,0.0045,-1.0118,-0.0083,-0.0002,-0.0062,0.6467,0.0927,0.0,2.77,0.17,-0.52,8.22
118,18.8027,s1_north_t2_move,-0.0157,-0.0308,-1.0137,-0.0046,-0.008,-0.0181,0.6494,0.0934,0.0,2.62,0.17,-0.54,13.96
119,18.9099,s1_north_t2_move,-0.0157,-0.0308,-1.0137,-0.0046,-0.008,-0.0181,0.6494,0.0934,0.0,2.58,0.17,-0.53,0.0
120,19.0385,s1_north_t2_move,0.0358,0.0042,-1.0129,-0.002,-0.0024,-0.0013,0.6513,0.0935,0.0,2.67,0.12,-0.47,5.54
121,19.1524,s1_north_t2_stop,-0.0034,-0.0005,-1.0123,-0.0063,0.0014,0.008,0.6574,0.0941,0.0,2.72,0.09,-0.46,0.0
122,19.2833,s1_north_t2_stop,-0.0001,0.0053,-1.0138,-0.0068,-0.0029,0.005,0.6604,0.0936,0.0,2.74,0.1,-0.47,16.0
123,19.4056,s1_north_t2_stop,-0.0001,0.0053,-1.0138,-0.0068,-0.0029,0.005,0.6635,0.0938,0.0,2.75,0.11,-0.5,16.03
124,19.511,s1_north_t2_stop,-0.0172,0.0041,-1.0112,-0.0051,-0.0008,-0.0006,0.6673,0.0944,0.0,2.77,0.12,-0.51,0.0
125,19.6481,s1_north_t2_stop,-0.0125,0.002,-1.0124,-0.0026,0.0015,0.0048,0.6667,0.0944,0.0,2.78,0.12,-0.5,15.95
126,19.7837,s1_north_t2_stop,0.0066,0.0029,-1.0118,-0.0021,0.0015,0.0007,0.665,0.0944,0.0,2.77,0.12,-0.49,23.65
127,19.9606,s1_north_t2_stop,0.0066,0.0029,-1.0118,-0.0021,0.0015,0.0007,0.665,0.0944,0.0,2.77,0.12,-0.49,62.51
128,20.0842,s1_north_turn_right,-0.004,0.0018,-1.0113,-0.0066,-0.0005,-0.0,0.6641,0.0947,0.0,2.78,0.12,-0.5,11.66
129,20.2163,s1_north_turn_right,-0.0027,-0.0161,-1.0014,-0.0443,0.0234,0.0388,0.6641,0.0947,0.0,2.78,0.12,-0.5,15.75
130,20.3332,s1_north_turn_right,-0.0027,-0.0161,-1.0014,-0.0443,0.0234,0.0388,0.664,0.0944,0.0,5.91,0.15,-0.54,0.0
131,20.452,s1_north_turn_right,0.0151,0.0829,-1.0081,0.027,0.0043,0.6163,0.6641,0.0924,0.0,9.55,0.17,-0.47,0.0
132,20.5895,s1_north_turn_right,-0.01,0.0255,-1.0194,0.0156,-0.0248,0.7136,0.6639,0.092,0.0,13.49,0.22,-0.5,15.91
133,20.7253,s1_north_turn_right,0.0087,0.0156,-1.0119,-0.0071,-0.0152,0.7454,0.6647,0.0926,0.0,24.22,0.21,-0.47,15.66
134,20.8446,s1_north_turn_right,0.0087,0.0156,-1.0119,-0.0071,-0.0152,0.7454,0.6649,0.0927,0.0,24.22,0.21,-0.47,15.97
135,20.9536,s1_north_turn_right,-0.0028,-0.011,-1.0141,0.0114,0.0069,0.8211,0.6652,0.0931,0.0,37.5,0.22,-0.4,0.0
136,21.0752,s1_north_turn_right,0.0123,0.0197,-0.9969,0.009,-0.0193,0.7575,0.6652,0.0931,0.0,41.94,0.22,-0.41,0.0
137,21.1972,s1_north_turn_right,0.0196,0.0332,-1.0255,-0.009,-0.0248,0.6924,0.6657,0.0942,0.0,41.94,0.22,-0.41,0.0
138,21.4023,s1_north_turn_right,0.0049,-0.0402,-1.0012,-0.0766,0.0268,0.9173,0.6665,0.0945,0.0,50.94,0.17,-0.36,84.03
139,21.5245,s1_north_turn_right,-0.0144,-0.0576,-1.0137,-0.0331,-0.0078,0.8341,0.6664,0.0951,0.0,59.99,0.18,-0.36,15.71
140,21.6462,s1_north_turn_right,-0.0144,-0.0576,-1.0137,-0.0331,-0.0078,0.8341,0.6664,0.0951,0.0,59.99,0.18,-0.36,16.06
141,21.7511,s1_north_turn_right,0.0214,0.0401,-1.0269,0.0233,-0.0067,0.7371,0.6666,0.0956,0.0,68.88,0.17,-0.29,0.0
142,21.8992,s1_north_turn_right,0.0351,-0.0185,-1.0129,-0.0336,0.0141,0.9075,0.665,0.0946,0.0,78.09,0.14,-0.27,26.06
143,22.0059,s1_north_turn_right,-0.0301,-0.0021,-1.0057,0.0472,-0.0241,0.7314,0.6648,0.0957,0.0,78.09,0.14,-0.27,0.0
144,22.1259,s1_north_turn_right,0.005,0.036,-1.0227,-0.0293,-0.002,0.7082,0.6661,0.0958,0.0,82.33,0.07,-0.23,0.0
145,22.2468,s2_east_t1_move,0.0081,-0.0167,-1.0039,-0.0155,-0.0084,0.8688,0.6658,0.0952,0.0,86.9,0.13,-0.3,0.0
146,22.37,s2_east_t1_move,-0.0116,-0.0769,-1.0192,-0.0177,0.0315,-0.1044,0.6618,0.0993,0.0,92.22,0.18,-0.37,0.0
147,22.4905,s2_east_t1_move,-0.0222,0.0259,-1.0121,0.0211,-0.0173,-0.0108,0.6641,0.1043,0.0,92.22,0.18,-0.37,0.0
148,22.6217,s2_east_t1_move,0.0169,-0.0199,-1.0126,-0.012,-0.0016,0.0426,0.6645,0.109,0.0,92.16,0.13,-0.32,7.66
149,22.7339,s2_east_t1_move,-0.028,0.0276,-1.0123,-0.0106,-0.0032,-0.0174,0.6664,0.1155,0.0,92.29,0.14,-0.34,0.0
150,23.2482,s2_east_t1_move,0.0189,-0.0082,-1.0112,0.0125,-0.0143,-0.0449,0.668,0.1325,0.0,92.36,0.2,-0.35,389.66
151,23.3553,s2_east_t1_move,0.0277,-0.027,-1.0171,-0.0039,-0.0085,-0.0298,0.67,0.1728,0.0,92.44,0.29,-0.33,2.06
152,23.4839,s2_east_t1_move,-0.0428,0.0197,-1.0123,-0.0273,0.0062,0.0364,0.6711,0.1821,0.0,92.37,0.29,-0.34,18.09
153,23.6017,s2_east_t1_move,0.0439,0.0055,-1.0146,-0.0043,0.0089,-0.0314,0.6704,0.1902,0.0,92.37,0.29,-0.34,15.86
154,23.7243,s2_east_t1_move,0.016,-0.024,-1.0183,-0.0393,0.0227,0.0517,0.6706,0.2001,0.0,92.37,0.32,-0.3,3.14
155,23.8605,s2_east_t1_move,0.006,-0.0064,-1.0094,0.0108,0.0081,-0.018,0.6705,0.2179,0.0,92.32,0.36,-0.35,16.21
156,23.9683,s2_east_t1_move,0.006,-0.0064,-1.0094,0.0108,0.0081,-0.018,0.6705,0.2179,0.0,92.32,0.36,-0.35,0.0
157,24.0945,s2_east_t1_move,0.0198,0.0525,-1.0217,-0.0043,-0.0155,-0.0592,0.6705,0.2368,0.0,92.22,0.39,-0.31,0.0
158,24.2156,s2_east_t1_move,0.0198,0.0525,-1.0217,-0.0043,-0.0155,-0.0592,0.6705,0.2368,0.0,92.22,0.39,-0.31,2.14
159,24.344,s2_east_t1_move,0.0824,0.0061,-1.0137,-0.0078,-0.0024,0.001,0.6709,0.2548,0.0,92.37,0.36,-0.29,16.19
160,24.4631,s2_east_t1_move,0.043,-0.0053,-1.0094,-0.0109,0.0075,0.0004,0.67,0.2661,0.0,92.36,0.34,-0.24,16.11
161,24.5784,s2_east_t1_move,0.0017,-0.0107,-1.0155,-0.0201,0.0032,0.0017,0.6698,0.285,0.0,92.35,0.35,-0.25,0.0
162,24.6995,s2_east_t1_move,-0.0563,0.0076,-1.0074,0.0037,0.0111,0.0017,0.6694,0.2921,0.0,92.29,0.32,-0.24,0.0
163,24.821,s2_east_t1_move,-0.0563,0.0076,-1.0074,0.0037,0.0111,0.0017,0.6694,0.2921,0.0,92.39,0.36,-0.22,16.01
164,24.9432,s2_east_t1_move,-0.0935,0.008,-0.9966,0.0165,0.0079,-0.015,0.6689,0.3014,0.0,92.33,0.31,-0.26,15.73
165,25.0657,s2_east_t1_move,0.0681,-0.013,-1.0117,-0.0102,0.0029,0.0364,0.6675,0.3125,0.0,92.32,0.35,-0.22,17.15
166,25.1979,s2_east_t1_move,-0.0117,-0.0298,-1.0131,-0.0032,0.0048,0.064,0.6636,0.3386,0.0,92.47,0.36,-0.18,15.87
167,25.3045,s2_east_t1_move,0.0603,0.028,-1.0129,-0.0337,-0.0087,-0.0339,0.6624,0.3503,0.0,92.29,0.33,-0.27,2.16
168,25.5018,s2_east_t1_move,-0.1123,0.0174,-1.008,0.0317,0.0044,-0.0436,0.6608,0.3588,0.0,92.42,0.38,-0.15,80.7
169,25.6195,s2_east_t1_move,-0.1264,0.0057,-1.0239,-0.033,-0.0165,-0.0003,0.6586,0.3818,0.0,92.33,0.36,-0.26,15.45
170,26.2908,s2_east_t1_move,0.0155,0.0182,-1.0154,-0.0221,0.0237,0.0007,0.6573,0.3855,0.0,92.26,0.41,-0.23,552.58
171,26.4128,s2_east_t1_move,0.1574,0.0145,-1.0157,-0.0166,0.0032,0.0026,0.6467,0.4461,0.0,92.2,0.32,-0.24,0.0
172,26.5437,s2_east_t1_move,0.0534,-0.0135,-1.0108,-0.0336,0.033,0.0218,0.6461,0.4652,0.0,92.34,0.41,-0.3,9.84
173,26.7291,s2_east_t1_move,0.0038,0.0321,-1.0094,-0.0196,-0.002,0.0043,0.6444,0.4782,0.0,92.34,0.41,-0.3,71.21
174,26.8395,s2_east_t1_move,-0.0836,-0.026,-1.0053,0.0149,0.0146,0.0425,0.6424,0.486,0.0,92.3,0.36,-0.33,5.46
175,27.137,s2_east_t1_move,0.0403,0.0168,-1.0053,-0.0242,0.0202,-0.0139,0.6404,0.5076,0.0,92.4,0.38,-0.32,177.7
176,27.2498,s2_east_t1_stop,-0.0771,0.0002,-1.0052,-0.0032,0.0137,0.0182,0.6393,0.5349,0.0,92.41,0.44,-0.35,2.01
177,27.384,s2_east_t1_stop,-0.0314,-0.0014,-1.0103,0.0196,0.0005,-0.009,0.638,0.5565,0.0,92.31,0.37,-0.31,15.77
178,27.5047,s2_east_t1_stop,-0.0083,-0.0194,-1.0107,-0.0338,0.0099,0.052,0.6382,0.5661,0.0,92.32,0.36,-0.3,15.9
179,27.6112,s2_east_t1_stop,-0.0266,0.0015,-1.0074,0.0121,0.004,-0.0298,0.6382,0.5661,0.0,92.4,0.37,-0.33,0.0
180,27.7438,s2_east_t1_stop,-0.0214,0.0076,-1.0128,-0.0035,-0.004,-0.0,0.6375,0.5812,0.0,92.31,0.36,-0.25,15.55
181,28.1608,s2_east_t1_stop,-0.0115,0.0182,-1.015,-0.0054,0.001,-0.0176,0.6374,0.59,0.0,92.36,0.39,-0.31,307.13
182,28.3095,s2_east_t2_move,-0.0183,0.0028,-1.0144,-0.0049,0.0053,-0.0035,0.6372,0.592,0.0,92.33,0.4,-0.29,43.3
183,28.4442,s2_east_t2_move,0.0019,0.0013,-1.0121,-0.0061,0.0001,0.0022,0.6374,0.5906,0.0,92.34,0.4,-0.31,16.03
184,28.5524,s2_east_t2_move,0.1609,-0.0044,-1.0146,0.0175,-0.0187,-0.0018,0.6357,0.6063,0.0,92.38,0.48,-0.33,0.0
185,28.6714,s2_east_t2_move,0.0948,0.024,-1.0077,-0.0107,-0.0083,-0.0231,0.6353,0.6206,0.0,92.44,0.4,-0.28,0.0
186,28.8039,s2_east_t2_move,-0.0594,0.0068,-0.9999,0.0145,0.0111,-0.0412,0.6345,0.6266,0.0,92.25,0.37,-0.25,10.3
187,28.9297,s2_east_t2_move,0.0249,0.0174,-0.9986,0.0058,0.025,0.0049,0.6345,0.6266,0.0,92.33,0.41,-0.21,11.53
188,29.1873,s2_east_t2_move,0.032,0.0239,-1.0098,-0.0056,-0.0045,-0.0578,0.6316,0.6437,0.0,92.26,0.37,-0.24,145.09
189,29.2942,s2_east_t2_move,0.0483,0.0266,-1.014,-0.0079,0.0083,0.0009,0.6293,0.6598,0.0,92.2,0.34,-0.19,0.0
190,29.4167,s2_east_t2_move,0.051,0.0212,-1.0071,-0.0054,0.0122,0.0427,0.627,0.677,0.0,92.44,0.35,-0.12,0.0
191,29.5461,s2_east_t2_move,-0.0181,0.0062,-1.0205,-0.0263,-0.0208,-0.0234,0.6248,0.6869,0.0,92.43,0.38,-0.21,6.38
192,29.7862,s2_east_t2_move,-0.0486,-0.0181,-1.0063,0.005,0.0228,0.0391,0.6248,0.6869,0.0,92.43,0.38,-0.21,126.79
193,29.9202,s2_east_t2_move,-0.0222,-0.0519,-1.0119,-0.0063,0.0106,0.0389,0.6186,0.7147,0.0,92.38,0.43,-0.22,15.81
194,30.033,s2_east_t2_move,-0.0346,0.0679,-1.0029,-0.008,0.013,-0.1031,0.6152,0.7339,0.0,92.25,0.37,-0.16,0.0
195,30.1555,s2_east_t2_move,0.0116,0.0153,-1.0126,-0.0028,0.0098,0.0355,0.6137,0.742,0.0,92.34,0.39,-0.18,0.0
196,30.3134,s2_east_t2_move,0.0116,0.0153,-1.0126,-0.0028,0.0098,0.0355,0.6137,0.742,0.0,92.42,0.46,-0.21,32.38
197,30.6306,s2_east_t2_move,-0.0139,0.0067,-1.0159,-0.013,0.002,-0.0353,0.6075,0.7732,0.0,92.52,0.47,-0.2,194.42
198,30.7599,s2_east_t2_move,-0.0206,-0.0184,-1.0133,0.0017,0.0114,-0.0263,0.5986,0.8068,0.0,92.39,0.53,-0.26,15.94
199,31.029,s2_east_t2_move,0.0163,0.0394,-1.0087,-0.0116,0.01,-0.0083,0.5976,0.8158,0.0,92.26,0.56,-0.26,148.83
200,31.3274,s2_east_t2_move,-0.0071,0.0131,-1.0503,-0.0015,-0.0203,-0.0213,0.5921,0.835,0.0,92.33,0.57,-0.26,193.58
201,31.4588,s2_east_t2_move,0.0112,-0.0297,-1.0048,0.0087,-0.0105,-0.0672,0.59,0.853,0.0,92.35,0.65,-0.19,20.56
202,31.5757,s2_east_t2_move,0.082,0.0236,-1.0153,0.0052,-0.0068,0.0093,0.5849,0.8796,0.0,92.36,0.62,-0.13,0.0
203,31.6944,s2_east_t2_move,-0.0431,-0.0168,-1.0228,-0.0555,-0.009,-0.0003,0.5829,0.8907,0.0,92.39,0.61,-0.17,0.0
204,31.8247,s2_east_t2_move,-0.007,-0.025,-1.0059,-0.0045,0.021,0.044,0.5823,0.8961,0.0,92.39,0.61,-0.16,9.51
205,32.0513,s2_east_t2_move,-0.007,-0.025,-1.0059,-0.0045,0.021,0.044,0.5823,0.8961,0.0,92.39,0.61,-0.16,110.93
206,32.2613,s2_east_t2_move,0.0106,0.0209,-1.0182,-0.0063,0.0024,-0.018,0.5779,0.9225,0.0,92.35,0.61,-0.16,102.99
207,32.3745,s2_east_t2_move,-0.0057,0.0485,-1.0117,-0.0105,0.0067,-0.0638,0.5757,0.9446,0.0,92.4,0.59,-0.16,0.0
208,32.5043,s2_east_t2_move,0.0125,-0.0112,-1.0106,0.0076,-0.0031,0.0241,0.5726,0.9612,0.0,92.31,0.57,-0.16,15.01
209,32.6234,s2_east_t2_move,0.0125,-0.0112,-1.0106,0.0076,-0.0031,0.0241,0.5726,0.9612,0.0,92.35,0.56,-0.09,15.64
210,32.7456,s2_east_t2_move,-0.008,0.0067,-1.0136,-0.0226,0.0114,-0.0126,0.5708,0.9772,0.0,92.35,0.55,-0.12,16.12
211,32.8667,s2_east_t2_move,0.0221,-0.0127,-1.0107,0.0007,0.0071,0.0035,0.5698,0.9861,0.0,92.35,0.55,-0.12,15.69
212,32.9714,s2_east_t2_move,-0.0111,0.0127,-1.01,0.0052,-0.0029,-0.0124,0.5695,0.9951,0.0,92.32,0.52,-0.08,0.0
213,33.0935,s2_east_t2_move,0.0601,0.0059,-1.0125,-0.0088,0.0034,-0.0176,0.568,1.0109,0.0,92.35,0.53,-0.09,0.0
214,33.2242,s2_east_t2_move,-0.0806,-0.0171,-1.0127,-0.004,-0.0,0.0181,0.5683,1.017,0.0,92.34,0.52,-0.09,19.1
215,33.3447,s2_east_t2_move,-0.0806,-0.0171,-1.0127,-0.004,-0.0,0.0181,0.5683,1.017,0.0,92.32,0.54,-0.02,18.17
216,33.4785,s2_east_t2_move,0.0577,-0.0092,-1.0036,-0.005,-0.0115,0.008,0.5693,1.0348,0.0,92.39,0.48,-0.02,30.49
217,33.5941,s2_east_t2_move,0.1236,-0.0195,-1.0193,-0.021,0.0069,-0.0092,0.57,1.0466,0.0,92.23,0.54,-0.07,0.0
218,33.7164,s2_east_t2_move,-0.0424,-0.0811,-1.0083,-0.028,0.0008,0.1084,0.5728,1.0552,0.0,92.44,0.46,-0.03,0.0
219,33.8446,s2_east_t2_move,-0.0726,0.0375,-1.0083,0.0023,0.0086,-0.0542,0.5729,1.0576,0.0,92.29,0.53,-0.08,14.75
220,33.9644,s2_east_t2_stop,-0.0291,0.023,-1.0137,-0.0221,0.0024,0.0515,0.5729,1.0576,0.0,92.15,0.52,-0.08,18.67
221,34.2977,s2_east_t2_stop,-0.0057,0.0276,-1.012,-0.0168,-0.0063,0.0425,0.5767,1.0744,0.0,92.34,0.48,-0.01,216.99
222,34.4162,s2_east_t2_stop,0.0008,-0.0152,-1.012,-0.0035,0.0003,0.0024,0.5736,1.0854,0.0,92.17,0.58,-0.15,0.0
223,34.5363,s2_east_t2_stop,-0.0011,-0.0037,-1.0118,-0.0008,-0.0035,0.0065,0.5736,1.0854,0.0,92.19,0.58,-0.15,0.0
224,34.6514,s2_east_t2_stop,0.0016,-0.0061,-1.0124,-0.0046,0.0009,0.0021,0.5735,1.085,0.0,92.19,0.58,-0.15,0.0
225,34.7924,s2_east_t2_stop,0.0,0.0001,-1.0116,-0.0055,0.0018,-0.0025,0.574,1.0856,0.0,92.18,0.59,-0.15,16.04
226,34.9233,s2_east_turn_right,-0.0026,-0.0029,-1.0119,-0.0035,0.0019,0.002,0.5739,1.0858,0.0,92.18,0.59,-0.15,11.97
227,35.0466,s2_east_turn_right,-0.0416,-0.0742,-0.9956,0.056,-0.0152,0.8506,0.5736,1.0857,0.0,93.02,0.59,-0.15,9.87
228,35.1533,s2_east_turn_right,-0.003,-0.0212,-1.0201,-0.0118,-0.0089,0.5687,0.5749,1.0865,0.0,97.1,0.55,-0.06,0.0
229,35.2761,s2_east_turn_right,-0.0264,-0.0005,-0.9985,0.0016,-0.0138,0.7663,0.5749,1.0865,0.0,100.87,0.52,-0.02,2.51
230,35.3953,s2_east_turn_right,0.0075,-0.0077,-1.0102,-0.0143,0.0165,0.7264,0.576,1.0864,0.0,105.01,0.5,0.02,0.0
231,35.5166,s2_east_turn_right,0.0211,0.0202,-0.9998,0.0036,0.0181,0.7124,0.5757,1.0856,0.0,113.67,0.44,0.04,0.0
232,35.6578,s2_east_turn_right,0.0142,0.0066,-1.0079,0.005,-0.0148,0.7762,0.5746,1.0863,0.0,113.67,0.44,0.04,16.05
233,35.7818,s2_east_turn_right,-0.0179,-0.0078,-0.9977,-0.0161,-0.0057,0.7836,0.5756,1.0868,0.0,122.45,0.35,0.13,17.51
234,35.9071,s2_east_turn_right,0.0006,0.0007,-1.0112,0.0151,-0.0252,0.7478,0.5749,1.0863,0.0,126.96,0.32,0.08,18.18
235,36.0105,s2_east_turn_right,0.0221,-0.0306,-1.0016,-0.0289,0.0112,0.8783,0.5744,1.0865,0.0,135.8,0.2,0.18,0.0
236,36.144,s2_east_turn_right,-0.0188,-0.0345,-1.0012,0.0049,0.0001,0.8015,0.5737,1.0869,0.0,140.45,0.18,0.15,18.23
237,36.2592,s2_east_turn_right,0.0006,0.0234,-1.0189,-0.0089,-0.0182,0.7203,0.5734,1.0873,0.0,144.88,0.07,0.2,12.19
238,36.3819,s2_east_turn_right,0.0001,0.0084,-0.9932,-0.0045,0.0248,0.8116,0.573,1.0871,0.0,149.24,0.03,0.26,9.21
239,36.4928,s2_east_turn_right,-0.0011,-0.0198,-1.013,-0.0243,-0.02,0.7902,0.5716,1.0867,0.0,153.86,-0.08,0.23,0.0
240,36.6146,s2_east_turn_right,0.0035,0.0526,-1.0114,0.0295,0.0021,0.6813,0.5716,1.0867,0.0,158.43,-0.11,0.22,0.0
241,36.7393,s2_east_turn_right,0.0077,-0.0289,-1.0111,-0.0554,0.0157,0.8786,0.5718,1.0869,0.0,169.6,-0.25,0.3,3.61
242,36.8529,s2_east_turn_right,0.0077,-0.0289,-1.0111,-0.0554,0.0157,0.8786,0.5718,1.0869,0.0,169.6,-0.25,0.3,0.0
243,36.9832,s3_south_t1_move,0.0136,0.0447,-1.0147,0.0005,0.0099,0.6722,0.5716,1.0869,0.0,178.75,-0.32,0.21,7.1
244,37.1051,s3_south_t1_move,0.019,-0.0009,-1.0069,-0.0267,0.0019,0.8815,0.5716,1.0859,0.0,-179.39,-0.22,0.13,15.79
245,37.2253,s3_south_t1_move,0.0192,-0.0943,-1.0068,-0.0634,0.0326,0.0258,0.5495,1.0933,0.0,-179.71,-0.29,0.14,15.66
246,37.3323,s3_south_t1_move,-0.1203,0.0838,-1.0003,0.0015,0.0107,-0.0316,0.5443,1.0936,0.0,179.92,-0.29,0.15,0.0
247,37.4556,s3_south_t1_move,0.1055,0.0134,-1.0182,0.0225,-0.0232,-0.0588,0.5321,1.0958,0.0,179.92,-0.29,0.15,0.0
248,37.5697,s3_south_t1_move,0.1055,0.0134,-1.0182,0.0225,-0.0232,-0.0588,0.5321,1.0958,0.0,-179.99,-0.31,0.1,0.0
249,37.6907,s3_south_t1_move,-0.0367,0.0357,-1.0153,0.0022,-0.0038,-0.001,0.5127,1.0989,0.0,-179.91,-0.29,0.09,0.0
250,40.834,s3_south_t1_stop,-0.0201,0.011,-1.0111,0.0052,-0.0093,-0.0267,0.0834,1.1003,0.0,-179.98,0.66,-0.0,3012.74
251,41.2663,s3_south_t2_move,-0.0087,0.0053,-1.0121,-0.0063,-0.0012,0.0001,0.0432,1.102,0.0,179.93,0.61,0.05,328.73
252,41.3743,s3_south_t2_move,-0.0019,0.0059,-1.0108,-0.0051,0.0034,0.0018,0.0454,1.1022,0.0,179.92,0.63,0.05,0.0
253,41.5035,s3_south_t2_move,0.1807,0.0013,-1.0166,0.0066,-0.0154,0.0014,0.0411,1.102,0.0,179.89,0.71,0.04,8.84
254,41.612,s3_south_t2_move,-0.1567,0.0186,-1.0047,0.0012,0.0036,-0.0031,0.0325,1.1026,0.0,179.94,0.57,0.05,0.0
255,41.7348,s3_south_t2_move,0.0505,-0.0138,-1.0164,-0.0142,-0.0009,0.0003,0.0325,1.1026,0.0,179.94,0.57,0.05,0.0
256,41.8541,s3_south_t2_move,-0.027,0.0138,-1.0135,0.0007,-0.0078,-0.0054,0.0238,1.1027,0.0,179.86,0.5,0.06,0.0
257,41.9824,s3_south_t2_move,0.0341,0.0172,-1.0131,0.0096,0.0038,-0.0014,0.0216,1.1022,0.0,179.86,0.5,0.06,15.85
258,42.4491,s3_south_t2_move,-0.0301,-0.0071,-1.0139,-0.0128,-0.0011,0.0466,0.0105,1.1041,0.0,179.99,0.42,0.1,352.4
259,42.5743,s3_south_t2_move,-0.0272,-0.0084,-1.009,-0.0004,-0.0086,-0.0009,-0.0095,1.106,0.0,179.88,0.34,0.15,3.0
260,42.7033,s3_south_t2_move,-0.0272,-0.0084,-1.009,-0.0004,-0.0086,-0.0009,-0.0095,1.106,0.0,179.86,0.3,0.16,16.07
261,42.8243,s3_south_t2_move,-0.0047,-0.0082,-1.0107,-0.0007,0.0052,0.0092,-0.0117,1.106,0.0,179.9,0.3,0.14,15.26
262,42.9462,s3_south_t2_move,0.0274,0.0019,-1.0108,-0.013,0.005,0.0152,-0.0166,1.1064,0.0,179.9,0.3,0.14,16.08
263,43.053,s3_south_t2_move,-0.0294,0.0091,-1.0121,-0.0054,-0.0018,0.0022,-0.021,1.1065,0.0,179.97,0.29,0.09,1.01
264,43.3066,s3_south_t2_move,-0.0339,0.0139,-1.0109,0.0148,-0.0067,-0.025,-0.0286,1.1061,0.0,179.9,0.24,0.16,127.4
265,43.4447,s3_south_t2_move,-0.0237,0.0013,-1.0068,-0.0122,-0.0006,0.0103,-0.0377,1.1065,0.0,179.97,0.16,0.17,16.03
266,43.5533,s3_south_t2_move,0.0355,0.0007,-1.013,-0.0226,0.0058,0.0052,-0.0442,1.1063,0.0,179.91,0.17,0.08,2.02
267,43.6739,s3_south_t2_move,-0.0302,-0.018,-1.0109,-0.0106,0.0051,0.0109,-0.0485,1.1065,0.0,179.91,0.17,0.08,0.0
268,43.9281,s3_south_t2_move,0.0199,0.0077,-1.0146,-0.0109,-0.0027,-0.0035,-0.0522,1.1066,0.0,179.93,0.17,0.06,129.78
269,44.0648,s3_south_t2_move,0.0019,0.0092,-1.0116,-0.0097,-0.004,0.0085,-0.0624,1.1061,0.0,179.87,0.08,0.14,16.96
270,44.1725,s3_south_t2_move,-0.02,0.0046,-1.011,-0.0111,0.007,0.0105,-0.0705,1.1062,0.0,-179.97,0.07,0.07,0.5
271,44.2901,s3_south_t2_move,0.0048,0.0047,-1.0124,-0.006,-0.0009,-0.0029,-0.0748,1.106,0.0,-179.99,0.05,0.05,0.0
272,44.4127,s3_south_t2_move,0.0048,0.0047,-1.0124,-0.006,-0.0009,-0.0029,-0.0791,1.1061,0.0,179.98,0.03,0.05,0.0
273,44.5337,s3_south_t2_move,0.0089,0.0017,-1.0109,-0.0008,0.0022,-0.0153,-0.0858,1.1058,0.0,179.88,0.01,0.09,0.0
274,44.6564,s3_south_t2_move,0.0142,-0.0016,-1.0106,0.002,-0.0019,0.0029,-0.0903,1.106,0.0,179.91,-0.04,0.11,1.28
275,45.3655,s3_south_t2_move,-0.0231,0.0132,-1.0092,-0.0066,0.0061,0.0004,-0.0932,1.1057,0.0,179.92,-0.03,0.11,586.43
276,45.4678,s3_south_t2_move,0.021,0.0084,-1.0114,-0.0018,0.002,0.0164,-0.1186,1.1059,0.0,179.99,-0.21,0.05,0.0
277,45.6032,s3_south_t2_move,-0.0036,0.0055,-1.0113,-0.0099,0.001,0.0263,-0.1226,1.1058,0.0,179.98,-0.22,0.05,15.79
278,45.7119,s3_south_t2_move,0.0111,0.0223,-1.0086,-0.0021,0.0062,-0.0142,-0.1255,1.1057,0.0,179.94,-0.26,0.06,0.0
279,45.8354,s3_south_t2_move,0.0059,0.0015,-1.012,-0.0057,-0.0031,-0.0037,-0.1296,1.106,0.0,179.94,-0.26,0.06,0.0
280,45.9642,s3_south_t2_move,-0.0046,0.0232,-1.0146,-0.0012,-0.0038,-0.0263,-0.1326,1.1061,0.0,179.87,-0.31,0.09,15.75
281,46.0845,s3_south_t2_move,-0.0095,0.0197,-1.0138,-0.0056,-0.0057,-0.0059,-0.1407,1.1061,0.0,179.92,-0.33,0.07,15.65
282,46.1917,s3_south_t2_move,-0.0095,0.0197,-1.0138,-0.0056,-0.0057,-0.0059,-0.1407,1.1061,0.0,179.92,-0.33,0.07,0.0
283,46.3137,s3_south_t2_move,-0.0009,0.0012,-1.0119,-0.0118,0.0028,-0.0156,-0.1443,1.1067,0.0,179.9,-0.35,0.07,0.0
284,46.434,s3_south_t2_move,-0.0014,0.011,-1.012,-0.0038,-0.0034,-0.0111,-0.1513,1.1074,0.0,179.9,-0.41,0.08,0.0
285,46.5557,s3_south_t2_move,0.011,-0.0084,-1.0206,-0.0028,-0.0024,0.0054,-0.1544,1.1075,0.0,179.91,-0.45,0.12,0.52
286,46.6739,s3_south_t2_move,-0.0067,0.0157,-1.0104,-0.0089,0.0028,0.0118,-0.1587,1.1087,0.0,-179.99,-0.48,0.13,0.0
287,46.8162,s3_south_t2_move,-0.0199,0.0108,-1.0137,-0.0127,-0.0003,-0.0193,-0.163,1.109,0.0,179.99,-0.48,0.08,24.29
288,46.9419,s3_south_t2_move,-0.0043,0.0316,-1.0081,-0.0096,-0.0038,0.0598,-0.1719,1.1093,0.0,179.86,-0.54,0.06,5.46
289,47.064,s3_south_t2_move,-0.0007,0.0218,-1.0097,-0.0025,0.0015,-0.0169,-0.1794,1.1109,0.0,179.98,-0.56,0.07,6.33
290,47.2015,s3_south_t2_move,0.0239,-0.0015,-1.0121,-0.0062,0.002,0.0144,-0.1811,1.1117,0.0,179.95,-0.59,0.11,34.73
291,47.3029,s3_south_t2_move,0.0239,-0.0015,-1.0121,-0.0062,0.002,0.0144,-0.1811,1.1117,0.0,179.95,-0.59,0.11,0.0
292,47.4417,s3_south_t2_move,-0.0071,0.004,-1.0135,-0.0134,0.006,0.0046,-0.1871,1.113,0.0,179.92,-0.61,0.05,10.8
293,47.5559,s3_south_t2_move,0.0141,0.0249,-1.0076,0.0135,0.0086,-0.0169,-0.1916,1.1141,0.0,179.83,-0.63,0.07,4.14
294,47.6727,s3_south_t2_move,-0.007,0.0026,-1.0145,-0.0066,-0.0068,0.0198,-0.2051,1.1152,0.0,-179.99,-0.7,0.17,0.0
295,47.7939,s3_south_t2_move,0.0045,0.0075,-1.0103,-0.0074,-0.0006,-0.0093,-0.2093,1.1158,0.0,179.98,-0.73,0.16,0.0
296,47.9202,s3_south_t2_move,0.0002,0.0169,-1.014,-0.009,-0.0015,-0.0234,-0.2141,1.1163,0.0,179.9,-0.77,0.12,0.0
297,48.2194,s3_south_t2_move,0.0078,0.0197,-1.0109,-0.0029,0.0043,-0.0308,-0.2177,1.1163,0.0,179.88,-0.8,0.14,177.84
298,48.3636,s3_south_t2_move,-0.0022,-0.0061,-1.0172,-0.0027,-0.0021,0.076,-0.2277,1.1182,0.0,-179.99,-0.85,0.2,21.78
299,48.493,s3_south_t2_move,0.0089,0.0099,-1.0103,-0.0009,0.0021,-0.0319,-0.2366,1.1184,0.0,179.83,-0.88,0.22,16.12
300,48.6183,s3_south_t2_move,-0.0027,-0.0034,-1.0125,-0.0039,-0.0014,0.0296,-0.2408,1.1191,0.0,179.92,-0.91,0.22,15.74
301,48.8457,s3_south_t2_move,-0.0011,-0.0043,-1.0136,-0.0054,-0.0027,0.0032,-0.2453,1.1194,0.0,179.92,-0.93,0.23,122.79
302,48.9621,s3_south_t2_move,-0.0051,0.0036,-1.0148,-0.0104,-0.0004,0.0071,-0.2594,1.1212,0.0,179.91,-1.01,0.25,1.56
303,49.2556,s3_south_t2_move,-0.0051,0.0036,-1.0148,-0.0104,-0.0004,0.0071,-0.2643,1.1216,0.0,179.91,-1.01,0.25,177.11
304,49.4552,s3_south_t2_move,-0.0037,0.0043,-1.0106,0.0177,-0.0061,-0.0111,-0.2746,1.1214,0.0,179.89,-1.11,0.22,94.34
305,49.6577,s3_south_t2_move,-0.0497,-0.0041,-1.013,-0.0204,-0.0027,0.017,-0.2931,1.1207,0.0,179.94,-1.34,0.26,81.14
306,50.0146,s3_south_t2_move,0.0051,0.0049,-1.0123,-0.0233,0.0022,0.0109,-0.3049,1.119,0.0,179.97,-1.43,0.29,237.3
307,50.1496,s3_south_t2_move,0.0796,0.0345,-1.0138,-0.0276,0.0089,0.0162,-0.3326,1.1164,0.0,179.94,-1.52,0.19,20.54
308,50.2545,s3_south_t2_move,-0.0545,-0.0485,-1.0113,0.0265,-0.0169,0.0106,-0.3326,1.1164,0.0,179.87,-1.65,0.36,0.0
309,50.4746,s3_south_t2_move,-0.0545,-0.0485,-1.0113,0.0265,-0.0169,0.0106,-0.3408,1.1158,0.0,179.99,-1.65,0.33,95.63
310,50.7598,s3_south_t2_move,0.0701,0.0253,-1.0073,-0.0305,0.0004,0.0202,-0.3772,1.1135,0.0,179.88,-1.76,0.22,160.63
311,50.906,s3_south_t2_stop,0.0532,0.007,-1.0228,-0.0069,0.0059,0.0109,-0.3958,1.1118,0.0,179.96,-1.87,0.21,23.53
312,51.0114,s3_south_t2_stop,-0.0155,-0.031,-1.0177,-0.003,0.0177,-0.0195,-0.4083,1.1108,0.0,179.91,-1.86,0.24,0.0
313,51.1517,s3_south_t2_stop,-0.0155,-0.031,-1.0177,-0.003,0.0177,-0.0195,-0.4161,1.1108,0.0,179.98,-1.95,0.22,18.63
314,51.2783,s3_south_t2_stop,-0.0184,0.0073,-1.0121,-0.001,0.004,0.0064,-0.4226,1.111,0.0,179.97,-1.98,0.22,9.1
315,51.4049,s3_south_t2_stop,-0.0184,0.0073,-1.0121,-0.001,0.004,0.0064,-0.428,1.1112,0.0,179.98,-1.99,0.22,15.93
316,51.5264,s3_south_t2_stop,-0.019,0.0066,-1.011,-0.0065,-0.0042,-0.0042,-0.435,1.1106,0.0,179.98,-2.06,0.23,15.83
317,51.6435,s3_south_t2_stop,-0.0175,0.0086,-1.0118,-0.006,-0.0015,-0.0021,-0.4374,1.1105,0.0,179.97,-2.09,0.24,15.89
318,51.8917,s3_south_turn_right,-0.0241,0.0067,-1.0118,-0.0042,-0.0004,0.0022,-0.4398,1.1112,0.0,179.97,-2.12,0.24,128.8
319,52.017,s3_south_turn_right,-0.0105,0.0053,-1.0133,-0.0067,0.0043,0.0016,-0.4389,1.1114,0.0,179.98,-2.15,0.24,16.29
320,52.1331,s3_south_turn_right,-0.0069,0.0063,-1.0114,-0.0066,0.0002,0.0006,-0.4388,1.1115,0.0,-177.76,-2.18,0.2,0.0
321,52.2552,s3_south_turn_right,-0.0289,-0.0368,-1.0167,0.0169,-0.0103,0.6352,-0.439,1.1134,0.0,-174.09,-2.21,0.11,0.0
322,52.3762,s3_south_turn_right,0.0203,0.0076,-1.0278,-0.0444,0.0081,0.7556,-0.4392,1.1131,0.0,-170.06,-2.25,-0.01,0.0
323,52.5006,s3_south_turn_right,-0.0002,0.053,-1.0061,0.0115,-0.0313,0.6594,-0.4396,1.1128,0.0,-161.5,-2.29,-0.31,0.0
324,52.7256,s3_south_turn_right,0.0107,-0.0045,-1.022,-0.0034,-0.0187,0.834,-0.44,1.1131,0.0,-152.94,-2.32,-0.62,104.5
325,52.861,s3_south_turn_right,-0.0091,0.0334,-0.9972,0.0039,-0.0109,0.8031,-0.4414,1.1119,0.0,-143.98,-2.28,-0.95,15.76
326,52.9845,s3_south_turn_right,0.0121,-0.0216,-1.0011,-0.0046,0.0126,0.8366,-0.4414,1.1114,0.0,-139.52,-2.27,-1.08,18.13
327,53.1042,s3_south_turn_right,0.0121,-0.0216,-1.0011,-0.0046,0.0126,0.8366,-0.4414,1.1114,0.0,-139.52,-2.27,-1.08,11.91
328,53.3562,s3_south_turn_right,0.03,0.0516,-1.0058,-0.0185,0.0099,0.7542,-0.4428,1.1114,0.0,-130.32,-2.16,-1.39,137.63
329,53.5388,s3_south_turn_right,0.0316,0.0101,-1.0244,-0.045,-0.0005,0.8037,-0.4428,1.1118,0.0,-116.9,-1.91,-1.8,80.95
330,53.7621,s3_south_turn_right,-0.0227,-0.0208,-1.0066,0.0261,-0.0139,0.7976,-0.4436,1.1108,0.0,-108.12,-1.53,-2.18,105.13
331,53.8823,s3_south_turn_right,-0.0222,-0.0262,-1.0087,-0.0123,0.003,0.835,-0.4467,1.1104,0.0,-103.4,-1.43,-2.33,15.82
332,54.0038,s4_west_t1_move,-0.0015,-0.0313,-0.9939,0.0189,-0.0036,0.8661,-0.4405,1.1098,0.0,-92.3,-1.09,-2.57,16.02
333,54.1258,s4_west_t1_move,-0.0015,-0.0313,-0.9939,0.0189,-0.0036,0.8661,-0.4405,1.1098,0.0,-92.3,-1.09,-2.57,15.97
334,54.2422,s4_west_t1_move,0.0042,0.0449,-1.0127,-0.0087,0.0042,0.3346,-0.439,1.1088,0.0,-90.7,-1.05,-2.57,0.0
335,54.3794,s4_west_t1_move,0.0969,-0.0945,-1.0182,-0.0242,-0.0174,-0.1051,-0.4447,1.105,0.0,-90.39,-1.03,-2.65,15.93
336,54.5019,s4_west_t1_move,-0.0412,0.0171,-1.0036,-0.0187,0.0103,0.1452,-0.4481,1.1041,0.0,-90.5,-1.03,-2.63,15.79
337,54.6223,s4_west_t1_move,-0.0015,0.0524,-1.0133,-0.0029,0.0157,-0.0503,-0.4556,1.0967,0.0,-90.59,-1.09,-2.56,15.75
338,54.73,s4_west_t1_move,-0.0015,0.0524,-1.0133,-0.0029,0.0157,-0.0503,-0.4585,1.0935,0.0,-90.49,-1.08,-2.66,0.0
339,54.864,s4_west_t1_move,0.0435,-0.0184,-1.0263,-0.0645,0.0052,0.0041,-0.4636,1.0874,0.0,-90.51,-1.1,-2.62,12.77
340,54.9721,s4_west_t1_move,0.0244,-0.0961,-1.0202,0.0056,-0.0111,0.1094,-0.4706,1.0785,0.0,-90.49,-1.16,-2.64,0.0
341,55.0916,s4_west_t1_move,-0.0266,0.0575,-1.0335,-0.0336,-0.0277,-0.0506,-0.4706,1.0785,0.0,-90.49,-1.16,-2.64,0.0
342,55.2158,s4_west_t1_move,0.0574,-0.0677,-1.0158,0.0045,0.026,-0.0749,-0.4832,1.0626,0.0,-90.59,-1.19,-2.53,0.0
343,55.5668,s4_west_t1_move,-0.0489,0.0658,-0.9979,-0.0037,0.0239,0.0239,-0.4874,1.0568,0.0,-90.56,-1.33,-2.65,229.02
344,55.6716,s4_west_t1_move,0.0039,-0.066,-1.0168,-0.0088,-0.0129,0.0367,-0.4946,1.0429,0.0,-90.45,-1.32,-2.42,1.25
345,55.7908,s4_west_t1_move,-0.0404,0.0964,-1.0005,0.0098,-0.0054,0.0031,-0.4956,1.0379,0.0,-90.41,-1.32,-2.37,0.0
346,55.9128,s4_west_t1_move,-0.0066,0.0129,-1.0002,0.0379,0.0011,-0.0086,-0.5042,1.0234,0.0,-90.52,-1.36,-2.36,0.0
347,56.035,s4_west_t1_move,-0.0066,0.0129,-1.0002,0.0379,0.0011,-0.0086,-0.5064,1.0174,0.0,-90.54,-1.4,-2.24,0.0
348,56.1646,s4_west_t1_move,-0.0066,-0.0322,-1.0158,-0.0294,-0.0013,0.0101,-0.5101,1.0099,0.0,-90.53,-1.4,-2.33,8.49
349,56.2909,s4_west_t1_move,-0.0638,0.102,-1.02,0.0088,-0.0081,-0.0389,-0.5143,1.0018,0.0,-90.54,-1.42,-2.33,12.07
350,56.576,s4_west_t1_move,0.0859,-0.0421,-1.0075,0.0209,-0.0061,0.0195,-0.5142,0.9969,0.0,-90.46,-1.42,-2.25,177.17
351,56.6952,s4_west_t1_move,-0.1182,0.0952,-1.0128,-0.0123,0.0064,-0.0185,-0.5297,0.9616,0.0,-90.58,-1.41,-2.32,0.0
352,57.0354,s4_west_t1_move,0.1317,-0.0171,-1.0172,0.0032,0.0055,-0.001,-0.5305,0.9567,0.0,-90.38,-1.46,-2.34,218.49
353,57.1555,s4_west_t1_move,0.0728,-0.0602,-1.0044,-0.0122,-0.0117,0.0909,-0.5382,0.9321,0.0,-90.55,-1.46,-2.33,0.0
354,57.2772,s4_west_t1_move,0.0686,-0.0347,-1.0153,-0.005,-0.0056,-0.0242,-0.5411,0.9182,0.0,-90.4,-1.48,-2.32,0.0
355,57.44,s4_west_t1_move,-0.0379,0.0039,-1.0096,-0.0129,-0.0097,0.0146,-0.544,0.9082,0.0,-90.62,-1.53,-2.31,41.98
356,57.5779,s4_west_t1_move,0.0167,-0.0067,-1.0166,-0.0074,-0.0128,0.0223,-0.5464,0.8936,0.0,-90.5,-1.54,-2.26,15.98
357,57.7015,s4_west_t1_move,-0.0435,0.011,-1.0122,-0.0089,-0.0044,-0.0113,-0.5483,0.8852,0.0,-90.5,-1.56,-2.3,15.82
358,58.0628,s4_west_t1_move,0.0128,0.0267,-1.0074,0.0097,0.0033,-0.0183,-0.5483,0.8852,0.0,-90.47,-1.59,-2.29,241.6
359,58.1768,s4_west_t1_move,0.0172,-0.0203,-1.0055,-0.0351,0.0152,0.041,-0.5528,0.8555,0.0,-90.47,-1.62,-2.25,2.53
360,58.2933,s4_west_t1_move,-0.0903,-0.0085,-1.0108,-0.0031,-0.0079,-0.0157,-0.5555,0.8389,0.0,-90.59,-1.66,-2.33,0.0
361,58.4129,s4_west_t1_move,-0.0903,-0.0085,-1.0108,-0.0031,-0.0079,-0.0157,-0.5555,0.8389,0.0,-90.59,-1.66,-2.33,0.0
362,58.5419,s4_west_t1_move,-0.0498,0.0261,-1.0151,-0.041,0.0,-0.0377,-0.5577,0.8206,0.0,-90.41,-1.7,-2.25,15.73
363,58.8835,s4_west_t1_move,-0.029,0.0349,-1.006,0.0012,0.028,0.0342,-0.5568,0.8129,0.0,-90.37,-1.69,-2.25,222.73
364,58.9991,s4_west_t1_move,-0.0485,0.0486,-1.0083,-0.003,-0.0075,0.108,-0.5575,0.7773,0.0,-90.34,-1.8,-2.12,8.46
365,59.1112,s4_west_t1_move,0.0217,0.0295,-1.0132,-0.0065,-0.0025,-0.0272,-0.5549,0.7674,0.0,-90.07,-1.78,-2.11,0.0
366,59.2455,s4_west_t1_move,-0.0644,-0.0648,-0.9982,0.0076,0.0108,-0.0542,-0.5589,0.7604,0.0,-90.58,-1.78,-2.08,10.31
367,59.6045,s4_west_t1_move,-0.0644,-0.0648,-0.9982,0.0076,0.0108,-0.0542,-0.5589,0.7604,0.0,-90.46,-1.75,-2.07,244.09
368,59.9005,s4_west_t1_move,-0.0012,0.0536,-1.0025,0.0283,0.0141,0.1786,-0.5595,0.7317,0.0,-89.74,-1.58,-1.98,177.84
369,60.0108,s4_west_t1_move,-0.0197,-0.0454,-1.0092,-0.0128,0.0017,-0.1168,-0.5693,0.7356,0.0,-90.78,-1.39,-2.07,0.0
370,60.1648,s4_west_t1_move,-0.0197,-0.0454,-1.0092,-0.0128,0.0017,-0.1168,-0.5705,0.7318,0.0,-90.6,-1.39,-2.12,32.18
371,60.2854,s4_west_t1_move,0.008,0.0427,-1.0142,-0.0031,0.0008,0.0897,-0.5659,0.7286,0.0,-91.01,-1.31,-2.04,12.76
372,60.3928,s4_west_t1_move,0.0728,0.069,-1.008,0.0185,0.0048,0.244,-0.5683,0.7191,0.0,-89.91,-1.21,-2.08,0.0
373,60.5312,s4_west_t1_move,0.0728,0.069,-1.008,0.0185,0.0048,0.244,-0.5659,0.7175,0.0,-90.47,-1.2,-2.2,15.88
374,60.6555,s4_west_t1_move,-0.0946,-0.0907,-1.0147,-0.0015,0.0048,-0.0369,-0.5654,0.7133,0.0,-90.97,-1.19,-2.19,0.0
375,60.7746,s4_west_t1_move,-0.0003,0.0356,-1.0234,-0.0821,-0.0159,-0.0025,-0.5601,0.7067,0.0,-91.08,-1.26,-2.29,0.0
376,60.8949,s4_west_t1_move,-0.0405,-0.0473,-1.0237,0.0051,0.0035,0.0011,-0.5538,0.6985,0.0,-91.08,-1.26,-2.29,0.0
377,61.0172,s4_west_t1_move,0.0178,0.1003,-1.0089,-0.0005,0.0094,0.1284,-0.5513,0.6944,0.0,-91.14,-1.28,-2.37,0.0
378,61.1473,s4_west_t1_move,-0.0121,0.0186,-0.9735,0.0103,0.0209,-0.0874,-0.5438,0.6885,0.0,-90.64,-1.26,-2.37,16.16
379,61.2852,s4_west_t1_move,0.0108,0.0327,-1.0106,0.0204,-0.0008,-0.0057,-0.5368,0.682,0.0,-90.49,-1.25,-2.37,16.08
380,61.398,s4_west_t1_move,-0.0607,0.0064,-1.0142,-0.0221,-0.0093,0.0131,-0.5368,0.682,0.0,-90.55,-1.25,-2.3,7.17
381,61.5271,s4_west_t1_move,-0.0607,0.0064,-1.0142,-0.0221,-0.0093,0.0131,-0.5327,0.6765,0.0,-90.54,-1.29,-2.34,15.94
382,61.6409,s4_west_t1_move,-0.0911,-0.0313,-1.011,0.0047,0.0037,-0.0005,-0.5271,0.6698,0.0,-90.53,-1.29,-2.27,8.92
383,61.9408,s4_west_t1_move,0.0223,0.0015,-1.0087,0.006,-0.0005,0.0198,-0.5229,0.6671,0.0,-90.53,-1.27,-2.26,178.01
384,62.0845,s4_west_t1_move,0.0726,0.0156,-1.017,-0.0091,-0.0125,0.0108,-0.5185,0.6648,0.0,-90.36,-1.32,-2.24,20.67
385,62.2046,s4_west_t1_move,0.0496,0.0248,-1.0183,-0.0114,0.0012,0.0083,-0.516,0.6634,0.0,-90.42,-1.32,-2.22,15.7
386,62.3267,s4_west_t1_move,-0.0222,0.0328,-1.011,-0.0087,-0.0118,-0.0641,-0.5143,0.662,0.0,-90.43,-1.33,-2.24,12.13
387,62.4424,s4_west_t1_move,0.0175,0.0372,-1.0139,-0.0085,-0.0028,0.0034,-0.5139,0.6613,0.0,-90.57,-1.34,-2.21,0.0
388,62.6307,s4_west_t1_move,-0.0197,-0.039,-1.0105,-0.0029,0.0038,0.0023,-0.5118,0.6616,0.0,-90.57,-1.34,-2.21,64.45
389,62.7616,s4_west_t1_move,0.0164,0.0352,-1.0124,-0.004,0.0064,0.0148,-0.5113,0.6613,0.0,-90.41,-1.35,-2.18,16.1
390,62.9762,s4_west_t1_move,-0.0099,0.026,-1.0137,0.0009,-0.0103,0.0032,-0.5088,0.6601,0.0,-90.44,-1.35,-2.16,95.53
391,63.383,s4_west_t1_move,0.0016,-0.0218,-1.018,-0.001,-0.0086,0.0126,-0.5081,0.6604,0.0,-90.59,-1.37,-2.12,300.29
392,63.5053,s4_west_t1_move,0.0233,0.0208,-1.0102,-0.0099,0.0034,0.0209,-0.5043,0.6603,0.0,-90.48,-1.41,-2.03,10.11
393,63.6182,s4_west_t1_move,0.0543,0.0319,-1.014,-0.01,0.0112,0.0307,-0.5016,0.661,0.0,-90.59,-1.43,-2.0,0.0
394,63.7984,s4_west_t1_move,0.0543,0.0319,-1.014,-0.01,0.0112,0.0307,-0.5016,0.661,0.0,-90.42,-1.44,-2.0,60.54
395,63.9193,s4_west_t1_move,-0.0384,-0.055,-1.0143,-0.0056,0.0057,0.0371,-0.4978,0.66,0.0,-90.48,-1.43,-1.98,15.98
396,64.2065,s4_west_t1_stop,0.0219,0.0435,-1.019,-0.0162,-0.0076,0.0079,-0.4968,0.6591,0.0,-90.47,-1.42,-1.97,166.13
397,64.3163,s4_west_t1_stop,-0.0027,0.0042,-1.0118,-0.0037,0.0027,0.0084,-0.4946,0.6642,0.0,-90.67,-1.44,-1.98,0.64
398,64.4344,s4_west_t1_stop,0.0056,0.0079,-1.0119,-0.0066,0.0017,0.0008,-0.4944,0.6667,0.0,-90.66,-1.43,-1.98,0.0
399,64.6074,s4_west_t1_stop,0.0236,0.0141,-1.0108,-0.0031,0.0006,0.005,-0.4941,0.6683,0.0,-90.65,-1.45,-1.97,49.89
400,64.7444,s4_west_t1_stop,0.0002,0.0136,-1.0131,-0.0063,-0.0001,0.0021,-0.4941,0.666,0.0,-90.65,-1.45,-1.97,16.1
401,65.0517,s4_west_t2_move,-0.0076,0.0139,-1.0128,-0.0036,0.0004,0.0014,-0.4944,0.6664,0.0,-90.66,-1.46,-1.96,191.78
402,65.1647,s4_west_t2_move,0.0078,0.0111,-1.0123,-0.0045,-0.0002,0.001,-0.4949,0.667,0.0,-90.65,-1.46,-1.97,0.0
403,65.3066,s4_west_t2_move,0.0882,-0.0435,-1.0151,0.0024,-0.0176,0.0311,-0.4961,0.6653,0.0,-90.62,-1.48,-1.95,18.5
404,65.4262,s4_west_t2_move,0.0882,-0.0435,-1.0151,0.0024,-0.0176,0.0311,-0.4961,0.6653,0.0,-90.62,-1.48,-1.95,14.93
405,65.5314,s4_west_t2_move,0.0866,-0.0242,-1.0103,-0.0221,0.0069,-0.0268,-0.5039,0.6451,0.0,-90.66,-1.45,-1.98,0.0
406,65.6523,s4_west_t2_move,-0.0737,0.0449,-1.0097,0.0018,-0.0146,-0.004,-0.505,0.6403,0.0,-90.69,-1.49,-1.9,0.0
407,65.772,s4_west_t2_move,-0.0737,0.0449,-1.0097,0.0018,-0.0146,-0.004,-0.505,0.6403,0.0,-90.69,-1.49,-1.9,0.0
408,65.8993,s4_west_t2_move,0.0249,0.0161,-1.0131,-0.0149,-0.0081,0.0017,-0.5097,0.6248,0.0,-90.64,-1.53,-1.9,5.95
409,66.2442,s4_west_t2_move,-0.0531,0.0636,-1.0016,0.008,0.0072,0.0069,-0.5102,0.6201,0.0,-90.64,-1.53,-1.9,224.31
410,66.6763,s4_west_t2_move,-0.0091,0.0185,-1.017,0.013,-0.0205,-0.0291,-0.514,0.5829,0.0,-90.58,-1.58,-1.76,315.36
411,66.7983,s4_west_t2_move,0.1359,0.0123,-1.0129,-0.0178,0.0104,0.0219,-0.5147,0.5437,0.0,-90.76,-1.65,-1.86,15.84
412,67.0698,s4_west_t2_move,0.0129,0.027,-1.03,-0.0461,-0.0277,-0.028,-0.5141,0.5367,0.0,-90.6,-1.59,-1.76,152.63
413,67.2041,s4_west_t2_move,0.1999,-0.0052,-1.0159,-0.0109,-0.0081,0.0471,-0.5128,0.5084,0.0,-90.61,-1.59,-1.89,16.06
414,67.3181,s4_west_t2_move,-0.19,0.0166,-1.0091,-0.0029,0.0046,-0.0276,-0.5127,0.4908,0.0,-90.73,-1.64,-1.92,8.26
415,67.432,s4_west_t2_move,-0.19,0.0166,-1.0091,-0.0029,0.0046,-0.0276,-0.5127,0.4908,0.0,-90.73,-1.64,-1.92,0.0
416,67.6705,s4_west_t2_move,0.0593,0.0351,-1.0182,-0.0359,-0.037,0.0067,-0.5116,0.4735,0.0,-90.74,-1.53,-1.91,111.04
417,67.7926,s4_west_t2_move,0.1224,-0.0033,-1.0271,-0.0307,-0.0016,0.0334,-0.5116,0.4442,0.0,-90.66,-1.59,-1.95,0.0
418,67.9355,s4_west_t2_move,-0.0635,0.0064,-1.0197,0.0113,-0.031,0.0085,-0.5112,0.4276,0.0,-90.68,-1.71,-1.9,17.96
419,68.3001,s4_west_t2_move,0.1374,0.0437,-1.0053,0.0217,-0.0298,-0.0561,-0.5108,0.4066,0.0,-90.57,-1.64,-1.93,257.54
420,68.4242,s4_west_t2_move,-0.0435,0.0101,-1.0017,0.0236,-0.0047,-0.0099,-0.5111,0.3603,0.0,-90.71,-1.67,-1.89,16.1
421,68.5404,s4_west_t2_move,0.0815,0.0101,-1.0187,0.0115,-0.014,0.0069,-0.5116,0.3471,0.0,-90.56,-1.71,-1.98,9.61
422,68.6625,s4_west_t2_move,-0.0924,0.0692,-0.9917,0.017,-0.0169,-0.0598,-0.5117,0.333,0.0,-90.56,-1.71,-1.98,16.66
423,68.7832,s4_west_t2_move,-0.0097,0.0492,-0.993,0.0076,-0.0179,-0.0276,-0.5122,0.3076,0.0,-90.65,-1.67,-1.89,16.04
424,68.9048,s4_west_t2_move,-0.0097,0.0492,-0.993,0.0076,-0.0179,-0.0276,-0.5122,0.3076,0.0,-90.69,-1.76,-1.85,16.04
425,69.0257,s4_west_t2_move,0.0956,0.005,-1.0232,-0.0319,-0.0014,0.0147,-0.5133,0.2855,0.0,-90.64,-1.63,-1.84,15.92
426,69.1302,s4_west_t2_move,-0.1054,0.0262,-1.0435,0.0134,-0.0429,-0.0101,-0.513,0.2699,0.0,-90.65,-1.69,-1.78,0.0
427,69.2517,s4_west_t2_move,0.031,0.0153,-1.0246,-0.0262,0.0187,-0.0295,-0.5134,0.2629,0.0,-90.62,-1.61,-1.9,0.0
428,69.5406,s4_west_t2_move,-0.0645,0.0255,-1.0001,-0.0167,0.027,-0.0029,-0.5126,0.2449,0.0,-90.66,-1.68,-1.85,160.06
429,69.6913,s4_west_t2_stop,-0.07,-0.0435,-0.9837,-0.0222,0.0457,0.0536,-0.5114,0.2216,0.0,-90.72,-1.63,-1.87,31.93
430,70.1356,s4_west_t2_stop,-0.0188,0.023,-1.007,-0.0119,0.021,0.0037,-0.5111,0.1952,0.0,-90.61,-1.54,-1.97,336.79
431,70.2541,s4_west_t2_stop,-0.0093,0.0166,-1.0103,-0.0133,0.0013,-0.0045,-0.5116,0.1568,0.0,-90.68,-1.46,-2.03,0.0
432,70.3741,s4_west_t2_stop,0.0046,0.0181,-1.0134,-0.0055,-0.0034,-0.0147,-0.5118,0.1527,0.0,-90.68,-1.46,-2.03,0.0
433,70.5679,s4_west_turn_right,-0.0058,0.0219,-1.0136,-0.0075,0.0015,-0.0044,-0.5115,0.1492,0.0,-90.71,-1.44,-2.03,69.59
434,70.6935,s4_west_turn_right,-0.0048,0.0163,-1.0119,-0.006,0.0031,-0.0014,-0.5115,0.1439,0.0,-90.73,-1.42,-2.02,15.8
435,70.8159,s4_west_turn_right,-0.0002,-0.0004,-1.0199,-0.0182,-0.0109,0.5909,-0.5141,0.1427,0.0,-87.29,-1.36,-2.17,6.09
436,70.9351,s4_west_turn_right,-0.0021,0.0503,-1.017,-0.0059,-0.0321,0.6466,-0.5141,0.1427,0.0,-83.6,-1.27,-2.24,0.0
437,71.0569,s4_west_turn_right,-0.0021,0.0503,-1.017,-0.0059,-0.0321,0.6466,-0.5159,0.1429,0.0,-79.52,-1.07,-2.23,0.0
438,71.185,s4_west_turn_right,-0.018,-0.0416,-1.0283,0.018,-0.0305,0.7098,-0.5151,0.1441,0.0,-71.17,-0.8,-2.36,8.91
439,71.5808,s4_west_turn_right,-0.018,-0.0416,-1.0283,0.018,-0.0305,0.7098,-0.514,0.1434,0.0,-66.65,-0.73,-2.32,282.55
440,71.7049,s4_west_turn_right,-0.0001,-0.0309,-1.007,0.0061,-0.0001,0.8098,-0.5147,0.1419,0.0,-46.67,-0.1,-2.44,17.05
441,71.8097,s4_west_turn_right,-0.0001,-0.0309,-1.007,0.0061,-0.0001,0.8098,-0.5148,0.1419,0.0,-42.17,0.05,-2.38,0.0
442,71.9386,s4_west_turn_right,0.0168,0.0014,-1.007,0.0042,-0.0143,0.7954,-0.5151,0.1409,0.0,-42.17,0.05,-2.38,7.84
443,72.0529,s4_west_turn_right,0.0399,0.004,-1.0117,-0.0179,0.0153,0.8309,-0.5141,0.1402,0.0,-33.11,0.39,-2.34,0.0
444,72.1742,s4_west_turn_right,0.0399,0.004,-1.0117,-0.0179,0.0153,0.8309,-0.5141,0.1402,0.0,-28.7,0.49,-2.23,0.0
445,72.2974,s4_west_turn_right,0.0151,0.0272,-1.0338,-0.0549,-0.0063,0.7047,-0.514,0.1397,0.0,-24.29,0.67,-2.34,0.0
446,72.7139,s4_west_turn_right,0.0288,-0.0297,-1.0017,-0.0302,0.0045,0.8497,-0.5138,0.1389,0.0,-19.62,0.84,-2.15,291.73
