step,time_s,phase,acc_x,acc_y,acc_z,gyro_x,gyro_y,gyro_z,pos_x,pos_y,pos_z,yaw,pitch,roll,latency_ms
0,0.0773,s1_north_t1_move,-0.0067,0.0051,-1.0154,-0.0072,0.0011,0.0003,-0.0,0.0001,0.0,-3.13,1.03,-1.96,76.75
1,0.2199,s1_north_t1_move,-0.0059,0.0047,-1.0133,-0.0064,-0.0003,-0.0006,0.0013,-0.0,0.0,-3.13,1.03,-1.96,37.42
2,0.3758,s1_north_t1_move,-0.156,-0.0119,-1.0043,-0.0208,0.0097,0.0162,0.014,-0.0009,0.0,-3.15,1.06,-1.92,53.05
3,0.5089,s1_north_t1_move,0.0742,0.0204,-1.01,-0.0032,0.0233,-0.0061,0.0247,-0.0014,0.0,-3.1,1.1,-1.94,28.52
4,0.6361,s1_north_t1_move,0.0138,0.0047,-1.0146,0.007,-0.002,-0.0171,0.0361,-0.0024,0.0,-3.15,1.12,-1.89,21.98
5,0.7577,s1_north_t1_move,-0.0934,0.0134,-1.0078,0.0068,0.012,-0.0033,0.0396,-0.0023,0.0,-3.11,1.18,-1.85,7.28
6,0.8755,s1_north_t1_move,-0.1614,0.0001,-1.011,0.0063,-0.0094,0.0023,0.0521,-0.0024,0.0,-3.13,1.21,-1.95,13.24
7,1.0661,s1_north_t1_move,0.05,0.0212,-1.0178,-0.0105,0.0178,0.0249,0.0598,-0.0021,0.0,-3.06,1.27,-1.87,88.39
8,1.1955,s1_north_t1_move,-0.1368,0.012,-1.0106,0.0151,0.0087,-0.0407,0.0776,-0.0021,0.0,-3.27,1.23,-1.84,23.4
9,1.39,s1_north_t1_move,0.1472,0.0053,-1.0179,0.0646,-0.0028,-0.0184,0.0847,-0.0014,0.0,-3.29,1.22,-1.62,90.22
10,1.5177,s1_north_t1_move,-0.0165,-0.0179,-1.0157,-0.0173,0.0191,-0.0032,0.1023,-0.0027,0.0,-3.12,1.24,-1.65,23.55
11,1.7132,s1_north_t1_move,0.0494,0.0087,-1.0176,0.0022,-0.013,-0.0067,0.1111,-0.0019,0.0,-3.14,1.24,-1.65,91.7
12,1.8367,s1_north_t1_move,-0.039,0.0017,-1.0167,-0.0187,0.005,-0.0498,0.1255,-0.0002,0.0,-3.16,1.35,-1.78,21.02
13,1.9559,s1_north_t1_move,-0.0284,-0.0504,-1.0169,-0.0055,-0.0006,0.0586,0.1331,-0.0001,0.0,-3.13,1.37,-1.8,9.08
14,2.0771,s1_north_t1_move,0.0103,0.03,-1.0102,0.0001,0.0057,-0.0396,0.1467,0.0022,0.0,-3.08,1.41,-1.78,7.66
15,2.1984,s1_north_t1_move,0.0175,0.001,-1.0165,-0.0087,0.0062,-0.0223,0.1535,0.0027,0.0,-3.2,1.42,-1.76,18.2
16,2.3165,s1_north_t1_move,0.0064,0.028,-1.0238,-0.0116,-0.0005,-0.0345,0.1535,0.0027,0.0,-3.2,1.42,-1.76,15.14
17,2.4354,s1_north_t1_move,0.026,-0.0118,-1.0122,-0.015,0.002,0.0032,0.1654,0.0032,0.0,-3.18,1.42,-1.82,18.27
18,2.6238,s1_north_t1_move,-0.0427,-0.0006,-1.0159,-0.0015,-0.0063,0.024,0.172,0.0041,0.0,-3.07,1.43,-1.9,84.92
19,2.734,s1_north_t1_move,0.0089,0.0235,-1.0148,-0.0115,-0.0018,-0.0151,0.1835,0.0051,0.0,-3.22,1.44,-1.94,6.89
20,2.8541,s1_north_t1_move,0.0089,0.0235,-1.0148,-0.0115,-0.0018,-0.0151,0.1835,0.0051,0.0,-3.22,1.44,-1.94,12.1
21,2.976,s1_north_t1_move,0.0591,0.01,-1.0189,0.0111,-0.0111,0.0026,0.1982,0.0062,0.0,-3.06,1.38,-1.87,18.2
22,3.0964,s1_north_t1_move,0.0591,0.01,-1.0189,0.0111,-0.0111,0.0026,0.1982,0.0062,0.0,-3.07,1.36,-1.88,17.63
23,3.2175,s1_north_t1_move,0.0033,-0.0063,-1.0163,-0.0105,0.0008,0.001,0.2019,0.0062,0.0,-3.08,1.38,-1.87,17.51
24,3.3364,s1_north_t1_move,-0.0037,0.0106,-1.0124,-0.0071,0.005,-0.013,0.2079,0.0057,0.0,-3.11,1.39,-1.9,14.83
25,3.455,s1_north_t1_move,-0.0263,0.0332,-1.0122,-0.0061,0.0037,-0.0423,0.2149,0.0057,0.0,-3.18,1.37,-1.94,11.49
26,3.5771,s1_north_t1_move,-0.0263,0.0332,-1.0122,-0.0061,0.0037,-0.0423,0.217,0.006,0.0,-3.18,1.37,-1.94,18.9
27,3.6974,s1_north_t1_move,0.0424,0.0215,-1.016,0.0121,-0.0067,0.0126,0.2217,0.0055,0.0,-3.13,1.3,-1.84,17.68
28,3.8133,s1_north_t1_move,-0.0287,-0.0031,-1.0124,-0.0059,-0.0047,0.002,0.2281,0.0048,0.0,-3.07,1.3,-1.84,11.41
29,3.935,s1_north_t1_move,-0.024,0.014,-1.0143,-0.0153,0.0032,0.0135,0.2321,0.0045,0.0,-3.08,1.29,-1.87,11.76
30,4.057,s1_north_t1_move,0.0132,0.01,-1.0152,-0.0088,0.0064,-0.0193,0.2347,0.0043,0.0,-3.07,1.3,-1.9,18.68
31,4.1767,s1_north_t1_move,-0.009,0.0099,-1.0144,-0.0203,-0.0076,0.0066,0.2374,0.004,0.0,-3.19,1.3,-1.92,17.33
32,4.2965,s1_north_t1_move,-0.0008,0.0049,-1.0146,-0.0026,0.0022,0.0056,0.2402,0.0038,0.0,-3.18,1.3,-1.94,15.64
33,4.4144,s1_north_t1_move,0.0105,0.009,-1.0153,0.0051,-0.0027,-0.0121,0.2419,0.0036,0.0,-3.23,1.3,-1.94,11.5
34,4.7305,s1_north_t1_move,0.0173,-0.0021,-1.0134,0.004,-0.0051,0.0166,0.2447,0.0031,0.0,-3.19,1.25,-1.86,212.91
35,4.9351,s1_north_t1_move,-0.0014,0.0047,-1.0124,-0.009,0.0171,-0.0271,0.2543,0.001,0.0,-3.07,1.23,-1.88,101.07
36,5.0568,s1_north_t1_move,0.0033,-0.013,-1.01,-0.008,0.0065,0.0241,0.2632,-0.0001,0.0,-3.22,1.29,-1.9,12.13
37,5.3928,s1_north_t1_move,-0.0152,-0.0021,-1.0147,-0.0043,0.0046,0.0025,0.2663,-0.0005,0.0,-3.15,1.28,-1.92,224.44
38,5.5131,s1_north_t1_move,0.0334,-0.0055,-1.0102,-0.0034,-0.0008,0.0235,0.2748,-0.0022,0.0,-3.17,1.24,-1.88,17.86
39,5.6368,s1_north_t1_move,-0.0299,0.0612,-1.0122,-0.0046,0.0022,-0.0125,0.2766,-0.002,0.0,-3.04,1.24,-1.93,19.82
40,5.7566,s1_north_t1_move,0.0163,-0.0077,-1.013,-0.0091,-0.0007,-0.02,0.2766,-0.002,0.0,-3.04,1.24,-1.93,18.4
41,5.872,s1_north_t1_move,0.0127,0.0215,-1.0128,-0.0122,0.0052,0.0069,0.2792,-0.0032,0.0,-3.15,1.25,-1.95,11.84
42,5.9953,s1_north_t1_move,-0.0095,0.0352,-1.0151,-0.0067,0.0042,-0.0143,0.2834,-0.0045,0.0,-3.13,1.25,-1.95,13.96
43,6.1163,s1_north_t1_move,0.0139,-0.0282,-1.0144,-0.0058,0.0086,0.0089,0.2834,-0.0045,0.0,-3.16,1.26,-1.95,19.59
44,6.2369,s1_north_t1_move,0.0481,-0.0205,-1.0164,0.0214,-0.0081,-0.0114,0.2903,-0.0079,0.0,-3.07,1.21,-1.91,19.13
45,6.3529,s1_north_t1_move,0.006,0.0376,-1.0112,-0.0155,0.01,0.0303,0.2903,-0.0079,0.0,-3.07,1.21,-1.91,13.66
46,6.4728,s1_north_t1_move,-0.0453,-0.0301,-1.0156,-0.0034,-0.0049,0.0015,0.2932,-0.0088,0.0,-3.12,1.21,-1.9,11.46
47,6.5961,s1_north_t1_move,-0.0252,-0.0066,-1.0116,-0.0045,0.0063,0.0432,0.2977,-0.0112,0.0,-3.03,1.21,-1.9,13.67
48,6.716,s1_north_t1_move,0.0169,-0.0179,-1.0168,-0.0101,-0.0062,-0.0095,0.3006,-0.0124,0.0,-3.13,1.2,-1.9,18.45
49,6.8373,s1_north_t1_move,-0.0016,0.0571,-1.0123,-0.0063,0.0023,-0.0232,0.3023,-0.0129,0.0,-3.15,1.21,-1.91,18.39
50,6.9527,s1_north_t1_move,-0.0183,-0.0222,-1.0162,-0.0029,-0.0089,0.0395,0.307,-0.0143,0.0,-3.12,1.17,-1.83,12.06
51,7.077,s1_north_t1_move,-0.0069,0.037,-1.0146,-0.0356,0.0058,0.0332,0.3095,-0.017,0.0,-3.1,1.18,-1.91,15.01
52,7.1962,s1_north_t1_move,-0.0069,0.037,-1.0146,-0.0356,0.0058,0.0332,0.3095,-0.017,0.0,-3.1,1.18,-1.91,18.67
53,7.4019,s1_north_t1_move,-0.013,-0.0015,-1.0167,-0.0106,0.0061,-0.0292,0.3114,-0.0171,0.0,-3.13,1.2,-1.94,103.23
54,7.5165,s1_north_t1_move,-0.0165,0.026,-1.0111,0.0018,0.0022,0.0096,0.3178,-0.0186,0.0,-3.3,1.19,-1.92,11.43
55,7.6372,s1_north_t1_move,0.0268,0.029,-1.013,0.0049,-0.0187,0.0096,0.3207,-0.0205,0.0,-3.16,1.15,-1.83,16.74
56,7.756,s1_north_t1_move,-0.0368,-0.0157,-1.0136,-0.0,-0.0049,0.016,0.3229,-0.0207,0.0,-3.08,1.12,-1.81,12.45
57,7.8762,s1_north_t1_move,0.0339,-0.0106,-1.016,-0.0054,-0.0043,0.0075,0.3246,-0.0211,0.0,-3.12,1.14,-1.79,18.91
58,7.997,s1_north_t1_move,-0.028,0.036,-1.0138,-0.0093,-0.0049,-0.045,0.3285,-0.0232,0.0,-3.1,1.14,-1.82,18.13
59,8.1171,s1_north_t1_move,-0.0086,-0.007,-1.013,-0.013,0.0011,0.0107,0.3309,-0.0234,0.0,-3.06,1.17,-1.86,7.73
60,8.4065,s1_north_t1_move,-0.0147,0.017,-1.0115,-0.0021,-0.0031,-0.0176,0.3332,-0.0237,0.0,-3.1,1.16,-1.86,188.13
61,9.0292,s1_north_t1_move,-0.0539,-0.002,-1.0089,0.0021,0.0072,0.0298,0.3382,-0.0248,0.0,-3.2,1.13,-1.8,516.13
62,9.1574,s1_north_t1_move,-0.0154,0.0205,-1.0126,-0.0054,0.0033,0.0043,0.3534,-0.027,0.0,-3.01,1.13,-1.87,18.78
63,9.2721,s1_north_t1_move,0.0145,0.006,-1.0141,-0.0039,0.003,-0.0321,0.3582,-0.028,0.0,-3.2,1.11,-1.85,12.14
64,9.3935,s1_north_t1_move,0.0169,0.0272,-1.0112,-0.0019,0.0113,-0.0012,0.3602,-0.0278,0.0,-3.17,1.12,-1.82,11.78
65,9.5197,s1_north_t1_move,0.0169,0.0272,-1.0112,-0.0019,0.0113,-0.0012,0.3638,-0.0278,0.0,-3.17,1.12,-1.82,16.51
66,9.6369,s1_north_t1_move,0.0142,0.0222,-1.0136,-0.0033,0.004,-0.0018,0.3667,-0.028,0.0,-3.12,1.08,-1.76,12.29
67,9.7563,s1_north_t1_move,0.0142,0.0222,-1.0136,-0.0033,0.004,-0.0018,0.3696,-0.0281,0.0,-3.12,1.07,-1.75,16.73
68,9.8759,s1_north_t1_move,0.0044,-0.0068,-1.0135,-0.0099,-0.0011,0.0156,0.3744,-0.0278,0.0,-3.1,1.06,-1.76,14.8
69,9.995,s1_north_t1_move,-0.0129,0.0027,-1.0135,-0.0157,0.0054,0.0266,0.3744,-0.0278,0.0,-3.05,1.08,-1.83,18.26
70,10.1169,s1_north_t1_stop,0.0099,0.0073,-1.016,-0.0167,0.0033,0.0007,0.3795,-0.0286,0.0,-3.19,1.08,-1.85,18.66
71,10.2375,s1_north_t1_stop,-0.0055,0.0118,-1.014,-0.0038,0.0029,-0.012,0.3795,-0.0286,0.0,-3.19,1.08,-1.85,18.23
72,10.3572,s1_north_t1_stop,-0.0141,0.0062,-1.0146,-0.0089,-0.0001,0.0095,0.3809,-0.029,0.0,-3.23,1.06,-1.85,16.42
73,10.4743,s1_north_t1_stop,-0.0029,0.003,-1.0135,-0.01,0.0034,0.0102,0.3782,-0.0289,0.0,-3.21,1.06,-1.86,11.09
74,10.5963,s1_north_t1_stop,0.0146,-0.0003,-1.0137,-0.0022,0.0017,0.0169,0.3739,-0.0292,0.0,-3.18,1.07,-1.87,18.05
75,10.7165,s1_north_t1_stop,0.0052,0.0094,-1.0127,-0.0075,0.0034,0.003,0.3737,-0.0289,0.0,-2.89,1.07,-1.86,17.01
76,10.8363,s1_north_t1_stop,0.0052,0.0094,-1.0127,-0.0075,0.0034,0.003,0.374,-0.0286,0.0,-2.89,1.07,-1.86,15.49
77,10.9566,s1_north_t1_stop,-0.0011,0.0031,-1.0149,-0.0041,0.0008,0.0005,0.374,-0.0286,0.0,-2.88,1.07,-1.85,18.29
78,11.0774,s1_north_t1_stop,-0.0006,0.0065,-1.0132,-0.0049,-0.0008,-0.0026,0.374,-0.0287,0.0,-2.88,1.07,-1.85,16.26
79,11.1955,s1_north_t2_move,-0.001,0.0043,-1.0144,-0.005,0.0001,0.0027,0.3736,-0.0299,0.0,-2.87,1.06,-1.84,10.77
80,11.3156,s1_north_t2_move,-0.0493,0.002,-1.0136,-0.0048,0.001,0.0044,0.3738,-0.0299,0.0,-2.87,1.07,-1.83,15.5
81,11.4356,s1_north_t2_move,-0.0208,-0.0156,-1.0153,-0.0006,-0.0071,0.0056,0.3772,-0.0305,0.0,-2.83,1.05,-1.81,13.99
82,11.5553,s1_north_t2_move,-0.0208,-0.0156,-1.0153,-0.0006,-0.0071,0.0056,0.3785,-0.0305,0.0,-2.84,1.05,-1.79,18.37
83,11.6714,s1_north_t2_move,0.0209,0.0045,-1.0138,-0.005,-0.0002,-0.0108,0.3785,-0.0305,0.0,-2.84,1.05,-1.79,6.51
84,11.7963,s1_north_t2_move,0.0077,0.0136,-1.0135,-0.0018,0.0017,-0.0095,0.3872,-0.0314,0.0,-2.97,1.02,-1.75,16.48
85,11.9164,s1_north_t2_move,0.009,-0.0058,-1.0164,-0.0034,0.0041,0.016,0.3897,-0.0318,0.0,-2.9,1.0,-1.7,15.1
86,12.0366,s1_north_t2_move,0.0188,-0.0006,-1.013,-0.0136,0.0019,0.0124,0.3918,-0.0329,0.0,-2.83,1.0,-1.7,19.75
87,12.1555,s1_north_t2_move,-0.025,0.0274,-1.0108,-0.0093,0.0016,-0.0058,0.3961,-0.0338,0.0,-2.77,1.0,-1.76,16.61
88,12.2765,s1_north_t2_move,0.0118,0.008,-1.0145,-0.0044,-0.0012,-0.0167,0.3984,-0.0337,0.0,-2.8,1.01,-1.78,16.95
89,12.3991,s1_north_t2_move,0.0046,0.0018,-1.0151,-0.0038,0.0012,-0.0101,0.4005,-0.0338,0.0,-2.89,1.0,-1.77,17.94
90,12.5251,s1_north_t2_move,0.0068,-0.0016,-1.0115,0.0038,-0.0053,0.0057,0.4039,-0.0344,0.0,-2.94,1.0,-1.76,22.11
91,13.128,s1_north_t2_move,-0.0168,0.0104,-1.0129,-0.0037,-0.0,-0.0115,0.4074,-0.0348,0.0,-2.91,0.97,-1.74,498.08
92,13.3283,s1_north_t2_move,-0.0141,-0.0133,-1.0151,-0.007,0.0093,0.0212,0.4312,-0.0362,0.0,-2.93,0.97,-1.69,96.92
93,13.4563,s1_north_t2_move,-0.0151,-0.0035,-1.0148,-0.0072,0.0009,-0.0075,0.4385,-0.0374,0.0,-2.91,0.96,-1.67,18.45
94,13.5764,s1_north_t2_move,-0.0078,0.023,-1.0116,-0.0072,-0.008,-0.0074,0.4418,-0.0377,0.0,-2.87,0.94,-1.65,17.41
95,13.6937,s1_north_t2_move,-0.0078,0.023,-1.0116,-0.0072,-0.008,-0.0074,0.4418,-0.0377,0.0,-2.87,0.94,-1.65,13.33
96,13.8141,s1_north_t2_move,0.0112,0.0048,-1.0153,-0.0072,-0.0058,0.0024,0.4473,-0.0377,0.0,-2.86,0.92,-1.66,11.59
97,13.9375,s1_north_t2_move,-0.0198,0.0016,-1.012,-0.0103,0.0048,0.005,0.454,-0.0388,0.0,-2.84,0.9,-1.66,19.6
98,14.0569,s1_north_t2_move,0.0214,0.0026,-1.0148,-0.0073,-0.0004,-0.0061,0.4581,-0.0393,0.0,-2.86,0.92,-1.68,18.12
99,14.1757,s1_north_t2_move,0.0152,0.0034,-1.0136,-0.0128,0.0159,0.0096,0.4611,-0.0396,0.0,-2.95,0.93,-1.7,6.49
100,14.2967,s1_north_t2_move,-0.0003,0.0156,-1.0158,0.0151,-0.0145,-0.0064,0.4674,-0.0397,0.0,-2.96,0.91,-1.65,20.01
101,14.409,s1_north_t2_move,-0.0003,0.0156,-1.0158,0.0151,-0.0145,-0.0064,0.4701,-0.0396,0.0,-2.96,0.91,-1.65,6.07
102,14.5352,s1_north_t2_move,-0.013,0.0015,-1.0086,0.0061,0.0063,0.0099,0.4701,-0.0396,0.0,-2.93,0.92,-1.6,16.82
103,14.6561,s1_north_t2_move,-0.0379,-0.0011,-1.0168,-0.0118,0.0054,0.0062,0.4819,-0.0395,0.0,-2.85,0.9,-1.64,16.05
104,14.7737,s1_north_t2_move,0.0321,0.0044,-1.0128,-0.009,0.0068,0.0062,0.4819,-0.0395,0.0,-2.83,0.93,-1.66,12.11
105,14.8968,s1_north_t2_move,-0.028,0.012,-1.014,-0.0063,-0.003,-0.0099,0.4898,-0.0398,0.0,-2.87,0.92,-1.71,13.4
106,15.0102,s1_north_t2_move,0.0383,-0.0081,-1.0188,0.0151,-0.0036,0.0043,0.493,-0.0401,0.0,-2.91,0.9,-1.65,11.78
107,15.1371,s1_north_t2_move,-0.0267,-0.0003,-1.01,-0.0095,-0.0048,0.0393,0.4992,-0.0406,0.0,-2.79,0.86,-1.59,17.61
108,15.2532,s1_north_t2_move,-0.0361,-0.001,-1.0154,-0.0074,-0.0006,0.0123,0.5024,-0.0413,0.0,-2.79,0.87,-1.59,11.73
109,15.3763,s1_north_t2_move,0.0512,0.0067,-1.0153,-0.0183,0.009,-0.0091,0.5117,-0.0414,0.0,-2.87,0.9,-1.68,19.72
110,15.4979,s1_north_t2_move,-0.016,0.0156,-1.0145,-0.0124,0.0065,-0.0102,0.5153,-0.0419,0.0,-2.91,0.91,-1.71,19.82
111,15.6181,s1_north_t2_move,-0.016,0.0156,-1.0145,-0.0124,0.0065,-0.0102,0.519,-0.0416,0.0,-3.01,0.91,-1.72,18.97
112,15.7366,s1_north_t2_move,0.0127,0.0197,-1.0149,-0.0098,0.0024,-0.0343,0.519,-0.0416,0.0,-3.01,0.91,-1.72,15.99
113,15.8542,s1_north_t2_move,0.0175,0.0031,-1.0149,0.0112,-0.0104,0.034,0.5237,-0.0408,0.0,-2.85,0.85,-1.61,11.85
114,15.9763,s1_north_t2_move,-0.0255,0.0154,-1.0094,-0.0072,0.0007,-0.0013,0.5314,-0.041,0.0,-2.82,0.85,-1.64,18.33
115,16.0965,s1_north_t2_move,0.0119,0.016,-1.0117,-0.0154,0.0032,-0.0339,0.539,-0.0406,0.0,-2.9,0.91,-1.72,17.3
116,16.2165,s1_north_t2_move,-0.0391,0.0147,-1.0127,-0.006,0.0048,-0.0069,0.539,-0.0406,0.0,-2.9,0.91,-1.72,16.22
117,16.3365,s1_north_t2_move,-0.0886,-0.0063,-1.0118,0.0154,0.0009,0.0319,0.5492,-0.0401,0.0,-2.82,0.88,-1.69,14.11
118,16.4561,s1_north_t2_move,0.0007,0.0104,-1.0137,-0.0177,-0.0154,0.0079,0.5514,-0.0402,0.0,-2.82,0.84,-1.69,18.64
119,16.5765,s1_north_t2_move,0.0025,0.0204,-1.0133,-0.0101,0.0048,-0.0254,0.5581,-0.0408,0.0,-2.86,0.83,-1.72,17.95
120,16.6957,s1_north_t2_move,0.0134,0.0029,-1.0145,-0.0113,-0.0098,-0.041,0.5687,-0.0415,0.0,-2.94,0.85,-1.73,15.68
121,16.8162,s1_north_t2_move,-0.0097,-0.0015,-1.0141,-0.008,-0.0091,0.0234,0.5687,-0.0415,0.0,-2.98,0.8,-1.73,18.98
122,16.935,s1_north_t2_move,0.0416,0.008,-1.011,-0.0097,0.002,0.0027,0.5768,-0.0426,0.0,-2.84,0.75,-1.72,11.46
123,17.0506,s1_north_t2_move,-0.0388,0.0044,-1.0137,-0.0137,-0.0003,-0.0036,0.5825,-0.0425,0.0,-2.83,0.71,-1.74,12.07
124,17.187,s1_north_t2_move,0.0013,0.0086,-1.013,-0.0056,0.0009,-0.0092,0.5868,-0.0426,0.0,-2.87,0.71,-1.75,15.32
125,17.3142,s1_north_t2_move,0.0041,-0.0164,-1.011,0.0031,-0.0034,-0.0056,0.5966,-0.0447,0.0,-2.89,0.7,-1.71,18.94
126,17.427,s1_north_t2_move,-0.0049,0.0198,-1.0152,0.001,0.0025,0.008,0.6014,-0.0446,0.0,-2.92,0.68,-1.7,6.24
127,17.6336,s1_north_t2_move,-0.0092,-0.0056,-1.0132,-0.0122,0.004,0.0162,0.6014,-0.0446,0.0,-2.92,0.68,-1.7,103.46
128,17.7571,s1_north_t2_move,0.0017,-0.0166,-1.0134,0.0022,-0.0006,-0.0183,0.6165,-0.0485,0.0,-2.91,0.61,-1.71,20.15
129,17.8755,s1_north_t2_move,0.0198,0.0177,-1.0041,0.0018,0.0167,0.0463,0.622,-0.0498,0.0,-2.95,0.61,-1.69,17.26
130,17.9923,s1_north_t2_move,0.0198,0.0177,-1.0041,0.0018,0.0167,0.0463,0.622,-0.0498,0.0,-2.95,0.61,-1.69,12.86
131,18.1163,s1_north_t2_move,0.0418,0.0092,-1.0181,-0.0038,0.0058,-0.0324,0.6409,-0.0511,0.0,-2.84,0.62,-1.69,21.34
132,18.2438,s1_north_t2_move,-0.0403,-0.0182,-1.0058,-0.0242,0.0176,0.0694,0.6481,-0.0525,0.0,-2.9,0.56,-1.65,9.43
133,18.3631,s1_north_t2_move,0.0215,-0.0337,-1.0192,0.0099,-0.0078,-0.0069,0.6529,-0.0533,0.0,-2.79,0.61,-1.74,17.92
134,18.4724,s1_north_t2_move,-0.041,0.0047,-1.0138,0.001,-0.0173,-0.0038,0.6612,-0.0537,0.0,-3.0,0.55,-1.68,6.5
135,18.6005,s1_north_t2_move,0.0231,-0.0001,-1.0116,-0.0111,0.0131,0.024,0.6674,-0.0546,0.0,-2.92,0.51,-1.63,19.64
136,18.7155,s1_north_t2_move,-0.0083,0.0628,-1.0203,0.0072,-0.0134,-0.0975,0.6749,-0.0555,0.0,-2.93,0.52,-1.7,13.24
137,18.8359,s1_north_t2_move,-0.0083,0.0628,-1.0203,0.0072,-0.0134,-0.0975,0.6833,-0.0554,0.0,-2.93,0.52,-1.64,15.29
138,18.9555,s1_north_t2_move,0.0657,0.0178,-1.0165,0.0049,-0.0124,0.0113,0.6995,-0.0572,0.0,-2.85,0.45,-1.7,16.72
139,19.0739,s1_north_t2_move,-0.09,0.0679,-1.0261,-0.0045,-0.0079,-0.0608,0.6995,-0.0572,0.0,-2.85,0.45,-1.7,15.5
140,19.195,s1_north_t2_move,-0.0131,-0.0025,-1.0055,0.0056,-0.0074,-0.0003,0.7136,-0.0572,0.0,-2.89,0.39,-1.62,18.27
141,19.3203,s1_north_t2_move,-0.09,0.0028,-1.0086,0.0063,0.0127,0.0012,0.7254,-0.0586,0.0,-2.9,0.39,-1.64,15.81
142,19.436,s1_north_t2_move,0.1347,0.0034,-1.0082,0.0138,0.0027,0.0044,0.7339,-0.0592,0.0,-2.94,0.42,-1.63,10.1
143,19.5524,s1_north_t2_move,0.1347,0.0034,-1.0082,0.0138,0.0027,0.0044,0.7467,-0.0603,0.0,-2.86,0.3,-1.59,12.1
144,19.6763,s1_north_t2_move,-0.1199,-0.0072,-1.0182,-0.0067,-0.0248,0.0132,0.7505,-0.0601,0.0,-2.82,0.41,-1.51,14.12
145,19.7967,s1_north_t2_move,0.0835,0.0022,-1.0173,-0.0167,-0.0155,-0.0066,0.7631,-0.0604,0.0,-2.85,0.42,-1.57,18.98
146,20.0899,s1_north_t2_move,0.1459,0.0264,-1.0174,-0.0222,0.025,0.0076,0.7784,-0.0601,0.0,-2.84,0.5,-1.61,191.72
147,20.2075,s1_north_t2_move,0.1619,-0.0052,-0.9965,0.0042,0.0151,0.0288,0.8129,-0.0584,0.0,-2.8,0.47,-1.64,15.43
148,20.4544,s1_north_t2_stop,-0.2065,0.0113,-1.0092,0.0036,0.015,-0.0558,0.8248,-0.0585,0.0,-3.03,0.41,-1.65,139.17
149,20.5765,s1_north_t2_stop,-0.0301,0.0084,-1.0131,-0.0076,0.0037,0.0024,0.8246,-0.0585,0.0,-3.13,0.42,-1.65,16.44
150,20.6974,s1_north_t2_stop,-0.0075,-0.0034,-1.015,-0.0039,0.0018,0.0089,0.8201,-0.058,0.0,-3.13,0.43,-1.66,15.92
151,20.8151,s1_north_t2_stop,0.0014,0.0023,-1.0139,-0.0036,0.0001,-0.0034,0.8201,-0.058,0.0,-3.13,0.43,-1.66,11.77
152,20.9317,s1_north_t2_stop,0.0004,0.0053,-1.0138,-0.006,0.001,-0.0019,0.8186,-0.0578,0.0,-3.14,0.41,-1.65,13.36
153,21.0519,s1_north_t2_stop,0.0005,0.008,-1.0123,-0.0089,0.0018,-0.0,0.8175,-0.0579,0.0,-3.14,0.4,-1.65,11.73
154,21.1773,s1_north_t2_stop,-0.0054,0.0083,-1.013,-0.0075,0.0049,0.0007,0.8175,-0.0579,0.0,-3.14,0.4,-1.65,15.8
155,21.2966,s1_north_turn_right,-0.006,0.0058,-1.0135,-0.0069,0.0012,-0.0003,0.817,-0.0576,0.0,-3.14,0.4,-1.64,13.98
156,21.4594,s1_north_turn_right,-0.0921,-0.2102,-1.0295,0.039,-0.0188,0.8152,0.8165,-0.0575,0.0,-2.76,0.4,-1.66,61.24
157,21.5755,s1_north_turn_right,0.003,-0.0418,-1.0216,-0.0328,0.0069,0.7359,0.8144,-0.0591,0.0,5.06,0.57,-1.53,13.24
158,21.6809,s1_north_turn_right,0.0097,0.0334,-1.0165,-0.0023,-0.0046,0.7221,0.816,-0.06,0.0,9.28,0.65,-1.49,3.47
159,21.7938,s1_north_turn_right,-0.021,0.0006,-1.0178,0.0247,-0.0148,0.7978,0.8171,-0.0592,0.0,13.45,0.73,-1.43,6.8
160,21.9149,s1_north_turn_right,0.0131,0.014,-1.019,-0.0035,-0.0113,0.7296,0.8161,-0.0589,0.0,17.9,0.77,-1.38,12.12
161,22.0295,s1_north_turn_right,0.0131,0.014,-1.019,-0.0035,-0.0113,0.7296,0.8166,-0.0577,0.0,22.2,0.85,-1.29,11.82
162,22.3454,s1_north_turn_right,0.0032,0.0011,-1.0115,0.0095,0.0042,0.8028,0.8177,-0.0573,0.0,31.16,0.98,-1.18,206.58
163,22.4626,s1_north_turn_right,0.015,-0.0133,-1.0099,-0.0845,0.0115,0.8232,0.8181,-0.0565,0.0,44.58,1.14,-0.84,7.6
164,22.5769,s1_north_turn_right,-0.011,-0.0183,-1.0049,0.0154,-0.0187,0.8025,0.8185,-0.056,0.0,48.98,1.19,-0.81,12.95
165,22.6914,s1_north_turn_right,0.0114,0.0189,-1.0162,-0.0007,-0.0084,0.7237,0.8187,-0.056,0.0,53.63,1.23,-0.74,11.34
166,22.8173,s1_north_turn_right,0.0092,0.0234,-0.9932,0.0094,0.0249,0.8037,0.8195,-0.0556,0.0,58.08,1.21,-0.56,16.62
167,22.9372,s1_north_turn_right,0.0092,0.0234,-0.9932,0.0094,0.0249,0.8037,0.8195,-0.0556,0.0,62.38,1.22,-0.5,15.13
168,23.0569,s1_north_turn_right,0.0099,0.0225,-1.0209,-0.0061,-0.0025,0.7357,0.8194,-0.0556,0.0,67.12,1.26,-0.31,19.17
169,23.1771,s1_north_turn_right,0.0259,0.0123,-1.0076,-0.0019,0.0251,0.7645,0.8194,-0.0556,0.0,73.72,1.25,-0.19,14.43
170,23.2963,s1_north_turn_right,0.0127,-0.0177,-1.0034,-0.0293,-0.0009,0.8445,0.8206,-0.0544,0.0,82.73,1.18,0.01,9.72
171,23.4159,s2_east_t1_move,0.026,0.0352,-1.0168,-0.0098,0.0131,0.5477,0.8204,-0.0545,0.0,86.46,1.2,-0.0,13.99
172,23.5365,s2_east_t1_move,0.0129,-0.0821,-1.0171,0.0052,-0.001,-0.034,0.8179,-0.0513,0.0,86.22,1.23,-0.01,18.95
173,23.6574,s2_east_t1_move,0.0174,0.002,-1.0185,-0.0108,-0.0218,-0.0299,0.8202,-0.0465,0.0,85.83,1.21,-0.02,18.62
174,23.7774,s2_east_t1_move,0.0607,-0.017,-1.0127,-0.0006,0.0013,0.0698,0.8212,-0.0425,0.0,86.1,1.2,0.04,16.66
175,23.8976,s2_east_t1_move,-0.0324,0.0253,-1.0148,-0.0279,0.0157,0.0027,0.8237,-0.0367,0.0,86.12,1.22,-0.03,10.04
176,24.0155,s2_east_t1_move,-0.0091,-0.0112,-1.0155,-0.0098,0.0115,-0.0046,0.8239,-0.0336,0.0,86.13,1.25,-0.04,12.47
177,24.1364,s2_east_t1_move,0.0228,-0.0063,-1.0137,-0.0112,0.0042,-0.0136,0.8248,-0.0285,0.0,86.08,1.28,-0.07,18.15
178,24.2527,s2_east_t1_move,0.0228,-0.0063,-1.0137,-0.0112,0.0042,-0.0136,0.8256,-0.0243,0.0,86.01,1.25,-0.02,12.99
179,24.3771,s2_east_t1_move,0.034,-0.0196,-1.0146,-0.0125,0.0024,-0.0016,0.8275,-0.0195,0.0,86.0,1.28,-0.03,15.11
180,24.4955,s2_east_t1_move,0.0235,0.0141,-1.0111,-0.0032,0.0054,0.0004,0.8301,-0.0097,0.0,86.08,1.33,-0.11,12.87
181,24.6163,s2_east_t1_move,0.0235,0.0141,-1.0111,-0.0032,0.0054,0.0004,0.8301,-0.0097,0.0,86.08,1.33,-0.11,15.37
182,24.7365,s2_east_t1_move,0.0188,0.0126,-1.0262,-0.0066,-0.0173,-0.0423,0.8306,-0.0019,0.0,85.93,1.29,-0.11,17.06
183,24.8472,s2_east_t1_move,-0.0137,0.0253,-1.0149,-0.0161,0.001,0.0342,0.8319,0.003,0.0,86.14,1.28,-0.11,6.09
184,24.9763,s2_east_t1_move,0.0158,0.0268,-1.0166,0.0008,-0.0014,-0.0396,0.8339,0.0137,0.0,86.01,1.31,-0.12,19.65
185,25.0968,s2_east_t1_move,0.0103,0.001,-1.0116,-0.0202,0.0013,0.0267,0.8355,0.0248,0.0,86.08,1.3,-0.15,19.07
186,25.2165,s2_east_t1_move,0.0103,0.001,-1.0116,-0.0202,0.0013,0.0267,0.8365,0.0319,0.0,86.08,1.3,-0.15,17.38
187,25.3327,s2_east_t1_move,0.0052,-0.0095,-1.0146,-0.006,-0.0043,0.0058,0.8381,0.0378,0.0,86.05,1.26,-0.15,11.46
188,25.4558,s2_east_t1_move,0.0239,-0.0003,-1.0138,-0.005,-0.0041,-0.0199,0.8392,0.0428,0.0,85.99,1.26,-0.14,7.73
189,25.5776,s2_east_t1_move,0.007,0.0085,-1.0069,-0.006,0.022,0.0152,0.8411,0.0553,0.0,86.07,1.29,-0.14,19.97
190,25.6965,s2_east_t1_move,-0.0217,-0.0103,-1.0129,-0.0022,0.004,-0.0083,0.8426,0.0609,0.0,86.05,1.31,-0.14,17.68
191,25.8159,s2_east_t1_move,-0.0128,0.0139,-1.0132,0.0067,-0.0082,-0.0127,0.8435,0.068,0.0,86.06,1.26,-0.12,15.52
192,25.9365,s2_east_t1_move,-0.0128,0.0139,-1.0132,0.0067,-0.0082,-0.0127,0.8435,0.068,0.0,86.06,1.26,-0.12,14.4
193,26.0576,s2_east_t1_move,-0.0194,0.0023,-1.0199,0.0028,-0.0056,-0.0549,0.8447,0.0811,0.0,86.02,1.3,-0.18,19.83
194,26.1783,s2_east_t1_move,-0.0194,0.0023,-1.0199,0.0028,-0.0056,-0.0549,0.8447,0.0811,0.0,86.02,1.3,-0.18,19.63
195,26.2967,s2_east_t1_move,-0.0423,-0.0019,-1.0076,-0.0231,0.006,0.0624,0.8472,0.0989,0.0,86.07,1.31,-0.18,17.04
196,26.4166,s2_east_t1_move,-0.0007,-0.0227,-1.0106,0.0025,0.0077,-0.0296,0.8478,0.107,0.0,85.95,1.31,-0.14,14.41
197,26.5358,s2_east_t1_move,-0.0153,0.0042,-1.0143,-0.0064,0.0019,0.0262,0.849,0.1143,0.0,86.04,1.28,-0.08,18.31
198,26.6724,s2_east_t1_move,-0.0153,0.0042,-1.0143,-0.0064,0.0019,0.0262,0.85,0.1203,0.0,86.11,1.28,-0.1,33.47
199,26.7918,s2_east_t1_move,-0.0132,0.0098,-1.0128,-0.0023,-0.005,0.0068,0.8506,0.1334,0.0,86.03,1.3,-0.16,7.33
200,27.0554,s2_east_t1_move,0.0059,-0.0062,-1.0176,0.0023,0.0018,0.0144,0.8506,0.1334,0.0,86.02,1.29,-0.12,162.2
201,27.1813,s2_east_t1_move,-0.0025,0.0126,-1.0135,-0.0116,0.0119,0.0025,0.8523,0.1525,0.0,86.06,1.27,-0.12,20.55
202,27.294,s2_east_t1_move,0.0068,0.0059,-1.0113,0.0031,0.0004,-0.0032,0.8533,0.1665,0.0,86.05,1.26,-0.09,11.8
203,27.4163,s2_east_t1_move,-0.0199,-0.0003,-1.014,-0.008,-0.0035,0.0042,0.8533,0.1665,0.0,86.04,1.24,-0.07,18.3
204,27.5371,s2_east_t1_move,0.0066,0.0022,-1.0125,-0.0037,0.0043,0.0069,0.854,0.1721,0.0,86.06,1.24,-0.08,18.41
205,27.6564,s2_east_t1_move,0.0232,0.0149,-1.0148,-0.0152,-0.0065,-0.0031,0.8539,0.1785,0.0,86.07,1.25,-0.09,16.34
206,27.7749,s2_east_t1_move,-0.0464,-0.0035,-1.0185,-0.0078,-0.004,0.0025,0.8539,0.1919,0.0,85.99,1.22,-0.09,13.35
207,27.8951,s2_east_t1_move,-0.0133,-0.0366,-1.0132,0.0133,-0.0163,0.0418,0.8535,0.1987,0.0,85.99,1.24,-0.06,11.44
208,28.0165,s2_east_t1_move,-0.0133,-0.0366,-1.0132,0.0133,-0.0163,0.0418,0.8531,0.2051,0.0,86.21,1.19,0.0,18.12
209,28.1365,s2_east_t1_move,-0.0432,0.0153,-1.0161,-0.0094,0.0062,-0.0184,0.8525,0.2181,0.0,86.05,1.24,-0.08,16.74
210,28.2534,s2_east_t1_move,0.0433,0.0041,-1.0134,-0.0169,0.0085,-0.0048,0.852,0.2254,0.0,85.96,1.24,-0.12,11.79
211,28.3772,s2_east_t1_move,0.0208,-0.0251,-1.021,-0.0091,0.0035,0.0244,0.8504,0.2321,0.0,86.09,1.2,0.01,13.66
212,28.4818,s2_east_t1_move,0.0005,0.0245,-1.0154,-0.0285,0.0083,-0.0355,0.8508,0.2391,0.0,86.12,1.21,-0.03,3.39
213,28.5971,s2_east_t1_move,0.0005,0.0245,-1.0154,-0.0285,0.0083,-0.0355,0.8508,0.2391,0.0,86.12,1.21,-0.03,9.78
214,28.7164,s2_east_t1_move,0.0276,0.0006,-1.0168,0.0019,0.005,-0.0246,0.8497,0.2525,0.0,85.97,1.22,-0.12,13.71
215,28.8374,s2_east_t1_move,-0.0102,-0.0035,-1.0102,0.0046,0.0096,0.0575,0.8487,0.26,0.0,86.0,1.18,-0.03,19.02
216,28.971,s2_east_t1_move,0.0204,0.0173,-1.015,-0.0252,0.0087,-0.0275,0.8481,0.2749,0.0,86.07,1.19,-0.14,24.8
217,29.3103,s2_east_t1_move,-0.0668,0.0122,-1.0096,-0.0129,0.0008,-0.0202,0.8471,0.2794,0.0,86.05,1.23,-0.16,236.74
218,29.4375,s2_east_t1_move,0.0045,0.0231,-1.0182,-0.0106,-0.0062,0.023,0.8451,0.3113,0.0,85.99,1.2,-0.2,13.3
219,29.5531,s2_east_t1_move,0.0451,0.0103,-1.0209,0.0205,-0.0062,0.0051,0.845,0.3161,0.0,86.01,1.19,-0.17,11.74
220,29.6781,s2_east_t1_move,0.0451,0.0103,-1.0209,0.0205,-0.0062,0.0051,0.8455,0.3244,0.0,86.11,1.16,-0.2,15.96
221,29.7979,s2_east_t1_move,-0.0118,0.0236,-1.0107,-0.0093,-0.0013,0.0006,0.8455,0.3244,0.0,86.11,1.16,-0.2,14.2
222,29.9172,s2_east_t1_move,0.0429,0.0218,-1.0137,-0.0097,-0.008,-0.0322,0.8458,0.3431,0.0,85.98,1.15,-0.23,16.76
223,30.0401,s2_east_t1_move,-0.059,-0.0024,-1.0157,-0.005,0.0078,0.005,0.8464,0.3504,0.0,85.92,1.15,-0.22,19.76
224,30.158,s2_east_t1_move,0.0618,0.0053,-1.015,-0.0118,0.008,0.0101,0.847,0.3654,0.0,86.07,1.2,-0.22,15.88
225,30.3275,s2_east_t1_move,-0.0244,-0.0016,-1.0136,-0.013,-0.0105,-0.0003,0.8472,0.3708,0.0,86.09,1.12,-0.22,64.3
226,30.4454,s2_east_t1_move,0.0684,0.0201,-1.008,-0.0064,0.0177,-0.0209,0.8496,0.3881,0.0,86.05,1.19,-0.23,11.77
227,30.7408,s2_east_t1_move,-0.0692,0.0071,-1.0174,-0.0125,-0.0113,0.0066,0.8496,0.3881,0.0,86.03,1.14,-0.2,185.36
228,30.8566,s2_east_t1_stop,-0.0197,-0.0107,-1.0146,0.002,-0.0131,-0.0053,0.8533,0.4189,0.0,86.12,1.15,-0.22,10.44
229,30.9765,s2_east_t1_stop,-0.0323,0.0001,-1.0127,-0.0026,-0.0004,-0.0089,0.8535,0.4235,0.0,86.1,1.12,-0.19,14.95
230,31.0974,s2_east_t1_stop,-0.0323,0.0001,-1.0127,-0.0026,-0.0004,-0.0089,0.8535,0.4235,0.0,86.1,1.12,-0.19,14.27
231,31.2169,s2_east_t1_stop,-0.0123,0.024,-1.0122,-0.0098,0.0083,-0.0052,0.8539,0.4296,0.0,86.13,1.17,-0.27,17.78
232,31.3367,s2_east_t1_stop,-0.0123,0.024,-1.0122,-0.0098,0.0083,-0.0052,0.8539,0.4296,0.0,86.13,1.17,-0.27,16.6
233,31.4576,s2_east_t1_stop,-0.0155,0.0051,-1.0131,-0.0074,0.0025,0.0022,0.8534,0.4296,0.0,86.12,1.17,-0.27,16.4
234,31.5748,s2_east_t1_stop,-0.0037,0.0085,-1.0116,-0.0027,0.0017,0.0027,0.8529,0.4274,0.0,86.14,1.18,-0.27,11.8
235,31.6971,s2_east_t1_stop,0.006,0.0072,-1.0129,-0.0086,-0.0016,0.004,0.853,0.4279,0.0,86.15,1.17,-0.28,12.21
236,31.8116,s2_east_t2_move,-0.0102,0.0057,-1.0138,-0.0054,0.005,0.0014,0.853,0.4282,0.0,86.15,1.17,-0.28,5.58
237,31.939,s2_east_t2_move,0.1062,0.006,-1.0149,0.0054,-0.0181,-0.0036,0.853,0.4276,0.0,86.11,1.23,-0.29,18.05
238,32.0579,s2_east_t2_move,0.1062,0.006,-1.0149,0.0054,-0.0181,-0.0036,0.8548,0.4392,0.0,86.17,1.12,-0.23,15.45
239,32.1916,s2_east_t2_move,0.0696,-0.0125,-1.0145,-0.0052,-0.0014,-0.017,0.855,0.4413,0.0,86.26,1.17,-0.21,27.45
240,32.3065,s2_east_t2_move,-0.025,0.0262,-1.0192,-0.0242,0.0019,-0.0787,0.857,0.4547,0.0,86.19,1.19,-0.24,7.85
241,32.4167,s2_east_t2_move,-0.0205,-0.0104,-1.0106,0.0097,0.0079,0.0265,0.857,0.4547,0.0,85.95,1.19,-0.25,9.46
242,32.5374,s2_east_t2_move,-0.0771,-0.0195,-1.0094,-0.0106,0.004,0.0379,0.8593,0.4675,0.0,86.14,1.17,-0.16,15.37
243,32.6556,s2_east_t2_move,0.0355,-0.0132,-1.0158,-0.0083,0.0145,-0.034,0.8604,0.4719,0.0,86.23,1.22,-0.2,11.8
244,32.7778,s2_east_t2_move,0.0355,-0.0132,-1.0158,-0.0083,0.0145,-0.034,0.8604,0.4719,0.0,86.23,1.22,-0.2,12.53
245,32.8977,s2_east_t2_move,-0.0754,-0.0049,-1.0114,-0.0019,0.0101,0.0361,0.8644,0.491,0.0,86.08,1.19,-0.15,16.83
246,33.0165,s2_east_t2_move,0.0721,-0.006,-1.0205,-0.0031,0.0003,-0.0045,0.8646,0.4992,0.0,86.18,1.26,-0.14,14.58
247,33.1416,s2_east_t2_move,-0.0237,0.0113,-1.014,-0.0018,-0.0088,-0.0072,0.8646,0.4992,0.0,86.18,1.26,-0.14,18.37
248,33.5077,s2_east_t2_move,0.0396,0.0071,-1.0177,-0.0053,-0.0023,-0.0043,0.8657,0.5121,0.0,86.12,1.3,-0.16,253.29
249,33.8156,s2_east_t2_move,0.019,0.0031,-1.0193,-0.0129,0.0106,0.021,0.8665,0.5397,0.0,86.13,1.32,-0.18,202.8
250,33.9371,s2_east_t2_move,-0.0277,-0.0077,-1.0081,-0.0257,0.0063,0.005,0.8652,0.5534,0.0,86.24,1.29,-0.11,18.49
251,34.055,s2_east_t2_move,0.0359,0.0149,-1.0156,-0.0171,0.003,-0.0312,0.8655,0.5656,0.0,86.11,1.36,-0.19,14.47
252,34.1774,s2_east_t2_move,0.0359,0.0149,-1.0156,-0.0171,0.003,-0.0312,0.8655,0.5656,0.0,86.11,1.36,-0.19,15.89
253,34.2991,s2_east_t2_move,-0.0509,-0.0028,-1.0123,0.0187,-0.0046,0.0243,0.8643,0.5784,0.0,86.22,1.35,-0.13,16.12
254,34.4173,s2_east_t2_move,0.0609,0.0028,-1.015,-0.0065,0.0013,-0.0031,0.8651,0.5873,0.0,86.22,1.35,-0.13,12.15
255,34.6294,s2_east_t2_move,0.0251,0.0178,-1.018,0.0019,0.0128,0.0004,0.8656,0.5982,0.0,86.17,1.43,-0.24,109.39
256,34.7587,s2_east_t2_move,0.0726,0.0078,-1.0146,-0.0164,-0.0015,-0.0089,0.8647,0.6107,0.0,86.2,1.43,-0.25,19.67
257,34.8765,s2_east_t2_move,0.0726,0.0078,-1.0146,-0.0164,-0.0015,-0.0089,0.8651,0.62,0.0,86.17,1.4,-0.3,16.68
258,34.9986,s2_east_t2_move,-0.0755,0.0115,-1.0132,-0.0086,0.0036,-0.0303,0.8655,0.6241,0.0,86.13,1.42,-0.31,10.82
259,35.1148,s2_east_t2_move,-0.0296,0.0152,-1.0138,0.0191,-0.0251,0.0058,0.8657,0.6308,0.0,86.14,1.44,-0.32,10.4
260,35.2278,s2_east_t2_move,-0.0203,-0.0024,-1.0109,0.0006,0.0108,0.0273,0.8655,0.6416,0.0,86.14,1.38,-0.28,9.06
261,35.451,s2_east_t2_move,-0.0306,0.0153,-1.0112,-0.0062,-0.0009,0.0062,0.866,0.6499,0.0,86.17,1.37,-0.32,115.64
262,35.6571,s2_east_t2_move,0.0104,0.0067,-1.0163,-0.0066,-0.0092,0.0021,0.8667,0.6606,0.0,86.09,1.38,-0.32,105.05
263,35.7775,s2_east_t2_move,-0.0248,0.006,-1.012,-0.0052,0.0043,0.0089,0.8683,0.6753,0.0,86.11,1.39,-0.31,18.73
264,35.8922,s2_east_t2_move,-0.0211,0.0086,-1.0118,-0.0086,-0.0039,-0.0149,0.8691,0.6823,0.0,86.1,1.35,-0.31,11.7
265,36.0182,s2_east_t2_move,-0.0211,0.0086,-1.0118,-0.0086,-0.0039,-0.0149,0.8691,0.6823,0.0,86.1,1.35,-0.31,16.19
266,36.1379,s2_east_t2_move,0.0029,-0.0037,-1.0136,-0.0182,0.0011,0.0302,0.8705,0.6947,0.0,86.07,1.38,-0.31,8.89
267,36.2568,s2_east_t2_move,-0.0352,0.0184,-1.0101,-0.0014,0.0054,0.0126,0.8729,0.7052,0.0,86.11,1.36,-0.27,12.49
268,36.3776,s2_east_t2_move,0.0424,-0.0018,-1.016,-0.0006,-0.0034,0.0225,0.8741,0.7126,0.0,86.25,1.35,-0.28,17.62
269,36.5185,s2_east_t2_move,-0.0411,-0.0131,-1.011,0.0018,0.0064,-0.0403,0.8743,0.7178,0.0,86.08,1.38,-0.33,37.35
270,36.6328,s2_east_t2_move,-0.0411,-0.0131,-1.011,0.0018,0.0064,-0.0403,0.8743,0.7178,0.0,86.08,1.38,-0.33,12.07
271,36.7621,s2_east_t2_move,-0.0192,-0.0052,-1.0115,0.0047,-0.0173,-0.0112,0.8754,0.7306,0.0,86.15,1.31,-0.23,19.6
272,36.8775,s2_east_t2_move,-0.0192,-0.0052,-1.0115,0.0047,-0.0173,-0.0112,0.8762,0.7363,0.0,86.15,1.31,-0.23,13.56
273,36.998,s2_east_t2_move,-0.0331,-0.0062,-1.0133,0.0037,-0.0069,-0.0286,0.8775,0.7483,0.0,86.05,1.32,-0.31,18.63
274,37.1166,s2_east_t2_move,0.0157,0.0005,-1.0137,-0.0035,-0.0239,0.0281,0.8786,0.7564,0.0,86.22,1.28,-0.22,9.8
275,37.231,s2_east_t2_move,0.0157,0.0005,-1.0137,-0.0035,-0.0239,0.0281,0.8792,0.7625,0.0,86.22,1.28,-0.22,8.95
276,37.3571,s2_east_t2_move,-0.0433,0.0272,-1.015,-0.0151,0.0077,-0.0124,0.8793,0.7676,0.0,86.22,1.31,-0.29,13.05
277,37.4777,s2_east_t2_move,-0.0131,-0.0007,-1.0127,0.0092,0.0001,-0.0026,0.88,0.7758,0.0,86.08,1.27,-0.21,19.07
278,37.5974,s2_east_t2_move,-0.019,0.001,-1.0103,0.001,0.0053,0.0184,0.8807,0.7877,0.0,86.16,1.23,-0.22,17.14
279,37.7175,s2_east_t2_move,0.0384,-0.0068,-1.0125,0.0083,0.0022,-0.0028,0.8812,0.7978,0.0,86.13,1.23,-0.22,16.0
280,37.8374,s2_east_t2_move,0.0384,-0.0068,-1.0125,0.0083,0.0022,-0.0028,0.8819,0.8059,0.0,86.13,1.23,-0.22,14.16
281,37.9573,s2_east_t2_move,-0.0383,-0.001,-1.0127,-0.0032,-0.0098,0.0032,0.8823,0.8112,0.0,86.12,1.23,-0.16,18.32
282,38.0785,s2_east_t2_move,0.014,0.0422,-1.0165,-0.0141,-0.0159,-0.0919,0.8824,0.8184,0.0,86.22,1.24,-0.18,17.99
283,38.1978,s2_east_t2_move,-0.045,0.0085,-1.0108,-0.0082,0.0084,0.0272,0.8823,0.8317,0.0,86.12,1.24,-0.2,16.57
284,38.3178,s2_east_t2_move,0.0481,0.0502,-1.0195,0.0164,-0.0188,-0.0321,0.8815,0.8401,0.0,86.3,1.17,-0.1,14.87
285,38.4363,s2_east_t2_move,-0.0084,0.0351,-1.0077,-0.0199,0.0034,0.0573,0.8815,0.8401,0.0,86.3,1.17,-0.1,11.9
286,38.7277,s2_east_t2_move,0.0393,0.0142,-1.0135,-0.0155,0.0012,0.0016,0.8807,0.8538,0.0,86.2,1.2,-0.17,187.6
287,38.9288,s2_east_t2_move,0.0573,0.0046,-1.0182,-0.008,0.0053,-0.023,0.8783,0.8684,0.0,86.19,1.13,-0.1,97.74
288,39.0584,s2_east_t2_stop,-0.0357,0.0183,-1.0044,0.0025,0.0064,-0.0167,0.8805,0.8953,0.0,86.19,1.07,-0.12,20.63
289,39.177,s2_east_t2_stop,-0.0085,0.0059,-1.0103,-0.0086,0.0061,-0.0004,0.8806,0.9,0.0,86.17,1.09,-0.11,12.09
290,39.2975,s2_east_t2_stop,-0.0085,0.0059,-1.0103,-0.0086,0.0061,-0.0004,0.8806,0.9,0.0,86.17,1.09,-0.11,17.28
291,39.4139,s2_east_t2_stop,-0.0181,0.0011,-1.0141,-0.0079,0.0025,-0.007,0.8817,0.9125,0.0,86.21,1.12,-0.23,11.78
292,39.537,s2_east_t2_stop,-0.009,0.0067,-1.012,-0.0127,0.0031,-0.0024,0.8822,0.9152,0.0,86.22,1.12,-0.25,13.53
293,39.6574,s2_east_t2_stop,-0.0205,0.0066,-1.0137,-0.01,0.0003,-0.0049,0.8822,0.9152,0.0,86.22,1.12,-0.25,18.22
294,39.9444,s2_east_turn_right,0.003,0.003,-1.0134,-0.0058,0.0017,0.0035,0.8818,0.9133,0.0,86.21,1.12,-0.26,171.69
295,40.0726,s2_east_turn_right,0.0043,0.0037,-1.0147,-0.0037,0.0014,0.0013,0.8818,0.9132,0.0,86.21,1.12,-0.26,27.22
296,40.1921,s2_east_turn_right,0.0284,0.0216,-0.9987,-0.0161,0.0075,0.6624,0.8838,0.9121,0.0,89.72,1.08,-0.11,13.29
297,40.3192,s2_east_turn_right,0.0284,0.0216,-0.9987,-0.0161,0.0075,0.6624,0.8841,0.9126,0.0,89.72,1.08,-0.11,18.34
298,40.4388,s2_east_turn_right,0.0144,0.0007,-1.0136,-0.0153,-0.0128,0.7617,0.8843,0.9119,0.0,97.33,1.05,0.04,16.6
299,40.5576,s2_east_turn_right,0.0024,0.0209,-1.0112,0.0048,-0.011,0.782,0.8845,0.9127,0.0,105.9,0.98,0.14,14.32
300,40.6773,s2_east_turn_right,0.0024,0.0209,-1.0112,0.0048,-0.011,0.782,0.8835,0.9123,0.0,105.9,0.98,0.14,18.63
301,40.7977,s2_east_turn_right,0.0119,0.0044,-1.0035,-0.0222,0.0085,0.7928,0.8835,0.9123,0.0,110.3,0.91,0.27,16.95
302,40.9176,s2_east_turn_right,0.0236,-0.0101,-1.0257,-0.0496,0.0123,0.7911,0.8831,0.9131,0.0,121.41,0.79,0.37,16.09
303,41.0379,s2_east_turn_right,0.0236,-0.0101,-1.0257,-0.0496,0.0123,0.7911,0.8829,0.9134,0.0,125.91,0.71,0.5,14.93
304,41.1569,s2_east_turn_right,-0.0109,0.0267,-1.0195,-0.0053,-0.0427,0.7404,0.8827,0.9135,0.0,130.29,0.62,0.54,18.26
305,41.2721,s2_east_turn_right,0.0199,0.0057,-1.0071,-0.0394,0.023,0.8095,0.8809,0.9127,0.0,134.9,0.56,0.57,11.53
306,41.5455,s2_east_turn_right,0.003,-0.0287,-1.0133,0.0041,-0.0219,0.8161,0.8809,0.9134,0.0,143.79,0.36,0.69,163.38
307,41.8152,s2_east_turn_right,0.0206,-0.005,-1.011,-0.0373,0.0054,0.7592,0.8806,0.9121,0.0,152.8,0.17,0.73,160.59
308,42.0055,s2_east_turn_right,0.013,-0.0011,-1.0128,-0.025,-0.0102,0.7465,0.8799,0.913,0.0,161.74,-0.06,0.77,89.02
309,42.2099,s3_south_t1_move,-0.0292,0.0502,-1.0218,0.0661,-0.0259,0.7035,0.8791,0.9124,0.0,170.63,-0.22,0.81,99.24
310,42.4144,s3_south_t1_move,-0.1183,-0.1497,-1.008,0.0194,-0.0198,0.0743,0.8659,0.9194,0.0,175.07,-0.31,0.68,103.5
311,42.5479,s3_south_t1_move,0.102,0.1165,-1.0063,0.0047,0.0069,-0.0501,0.8508,0.924,0.0,175.29,-0.25,0.65,31.21
312,42.8247,s3_south_t1_move,0.0129,0.0181,-1.0074,0.008,0.0095,0.0096,0.8363,0.9284,0.0,175.15,-0.28,0.64,174.2
313,43.0286,s3_south_t1_move,0.1076,0.0114,-1.0168,-0.006,-0.0014,-0.0059,0.8082,0.9322,0.0,175.19,-0.26,0.62,99.0
314,43.1379,s3_south_t1_move,-0.0297,0.0093,-1.0111,0.0074,0.0189,0.0056,0.8021,0.933,0.0,175.21,-0.25,0.69,7.91
315,43.257,s3_south_t1_move,0.09,0.0116,-1.0211,-0.0219,-0.0098,-0.0028,0.7793,0.9358,0.0,175.23,-0.25,0.63,17.41
316,43.3777,s3_south_t1_move,-0.1118,0.0127,-1.0118,-0.0032,-0.0056,-0.0031,0.7793,0.9358,0.0,175.17,-0.3,0.64,16.87
317,43.498,s3_south_t1_move,0.0778,-0.0175,-1.0191,-0.0291,0.0227,0.0308,0.7715,0.9366,0.0,175.25,-0.21,0.64,15.63
318,43.6236,s3_south_t1_move,-0.0392,0.0044,-1.0129,-0.0068,0.0139,0.0054,0.7488,0.9384,0.0,175.27,-0.24,0.67,19.29
319,43.738,s3_south_t1_move,-0.0392,0.0044,-1.0129,-0.0068,0.0139,0.0054,0.7365,0.9396,0.0,175.23,-0.23,0.65,12.96
320,43.862,s3_south_t1_move,-0.0698,0.012,-1.0044,0.0112,-0.004,-0.0046,0.7147,0.9419,0.0,175.15,-0.28,0.68,20.6
321,43.9742,s3_south_t1_move,0.0813,0.0408,-1.0156,0.0036,-0.0002,-0.021,0.6996,0.943,0.0,175.2,-0.21,0.63,6.3
322,44.1811,s3_south_t1_move,-0.0246,0.0262,-1.0077,0.0124,0.0042,-0.015,0.6901,0.9436,0.0,175.2,-0.29,0.66,88.82
323,44.2918,s3_south_t1_move,0.0606,0.0004,-1.014,-0.0109,-0.0101,0.0119,0.677,0.945,0.0,175.23,-0.33,0.64,8.18
324,44.4178,s3_south_t1_move,-0.0719,-0.0237,-1.0111,-0.0071,-0.0014,0.0067,0.6532,0.9468,0.0,175.17,-0.39,0.72,11.71
325,44.5564,s3_south_t1_move,-0.0041,-0.0659,-1.0096,-0.0222,-0.016,0.1114,0.6384,0.9476,0.0,175.34,-0.46,0.77,26.41
326,44.691,s3_south_t1_move,-0.0041,-0.0659,-1.0096,-0.0222,-0.016,0.1114,0.6384,0.9476,0.0,175.34,-0.46,0.77,30.64
327,45.0731,s3_south_t1_move,0.067,-0.004,-1.012,-0.0268,0.014,0.0279,0.596,0.9487,0.0,175.09,-0.54,0.7,279.33
328,45.1974,s3_south_t1_move,-0.0774,-0.0428,-1.0281,-0.0308,-0.0035,0.0438,0.54,0.9496,0.0,175.12,-0.65,0.71,15.07
329,45.3165,s3_south_t1_move,-0.0449,-0.03,-1.0163,0.0046,-0.0239,0.0236,0.522,0.95,0.0,175.26,-0.73,0.72,12.53
330,45.4387,s3_south_t1_move,0.0336,-0.0075,-1.0148,-0.0115,-0.0259,0.0522,0.5077,0.9498,0.0,175.23,-0.66,0.76,19.56
331,45.5513,s3_south_t1_move,0.0336,-0.0075,-1.0148,-0.0115,-0.0259,0.0522,0.4905,0.9506,0.0,175.14,-0.69,0.79,10.47
332,45.6742,s3_south_t1_move,0.0062,0.0065,-1.0151,0.0252,0.0012,-0.0325,0.4721,0.9509,0.0,175.19,-0.71,0.79,18.04
333,45.8041,s3_south_t1_stop,0.0149,0.0623,-1.0121,0.0039,-0.0227,-0.0504,0.4471,0.9517,0.0,175.29,-0.64,0.72,8.09
334,45.9173,s3_south_t1_stop,-0.0407,-0.0279,-1.0247,-0.0397,0.0135,0.0844,0.41,0.9528,0.0,175.45,-0.72,0.8,12.34
335,46.0366,s3_south_t1_stop,-0.0344,0.0172,-1.0101,0.0113,0.006,-0.0043,0.3939,0.9541,0.0,175.49,-0.73,0.74,16.06
336,46.1602,s3_south_t1_stop,-0.0058,-0.0223,-1.0161,-0.0517,0.0081,0.0239,0.379,0.9555,0.0,175.44,-0.73,0.83,18.27
337,46.2787,s3_south_t1_stop,-0.0058,-0.0223,-1.0161,-0.0517,0.0081,0.0239,0.379,0.9555,0.0,175.44,-0.73,0.83,9.47
338,46.3985,s3_south_t1_stop,-0.0208,-0.003,-1.0114,-0.0043,0.0083,-0.0017,0.3512,0.9577,0.0,175.43,-0.77,0.84,13.86
339,46.5186,s3_south_t1_stop,-0.0061,0.0197,-1.0101,-0.0054,0.0007,-0.0172,0.3272,0.9595,0.0,175.37,-0.75,0.82,18.38
340,46.6378,s3_south_t1_stop,-0.0184,-0.0183,-1.0163,-0.0206,0.003,-0.0342,0.3272,0.9595,0.0,175.18,-0.83,0.94,16.44
341,46.7551,s3_south_t1_stop,-0.0164,0.0034,-1.0188,-0.017,0.0234,0.022,0.3061,0.9614,0.0,175.15,-0.8,0.84,11.81
342,46.8777,s3_south_t2_move,-0.0204,-0.0356,-1.0097,-0.0257,0.0095,0.0311,0.297,0.961,0.0,174.76,-0.84,0.95,18.8
343,46.9999,s3_south_t2_move,0.0969,0.0389,-0.9994,-0.0122,0.0393,0.0039,0.2711,0.9616,0.0,174.85,-0.8,0.84,19.94
344,47.1177,s3_south_t2_move,-0.0044,-0.0678,-0.9975,-0.0288,-0.0272,0.0965,0.2711,0.9616,0.0,174.62,-0.78,0.88,16.02
345,47.2395,s3_south_t2_move,-0.1383,-0.0103,-1.0229,0.0034,0.0105,-0.033,0.2495,0.9611,0.0,174.85,-0.84,0.77,16.98
346,47.3598,s3_south_t2_move,-0.1234,-0.0186,-1.0067,-0.0231,-0.0152,0.0431,0.2137,0.9601,0.0,174.75,-0.84,0.75,15.79
347,47.4801,s3_south_t2_move,-0.1234,-0.0186,-1.0067,-0.0231,-0.0152,0.0431,0.1958,0.9601,0.0,174.86,-0.79,0.75,13.0
348,47.598,s3_south_t2_move,0.0789,0.004,-1.0023,0.0148,0.0102,0.0308,0.1782,0.9604,0.0,174.85,-0.82,0.79,8.49
349,47.7207,s3_south_t2_move,-0.178,-0.0607,-1.0179,0.0126,0.0242,0.0508,0.1439,0.9611,0.0,174.83,-0.77,0.76,11.99
350,47.8386,s3_south_t2_move,0.1124,0.0162,-1.0169,-0.009,0.0318,0.0005,0.0974,0.9616,0.0,174.89,-0.6,0.71,14.58
351,47.9614,s3_south_t2_move,-0.0581,0.0143,-1.0085,-0.0041,-0.0015,-0.0618,0.0792,0.963,0.0,174.78,-0.58,0.74,21.63
352,48.1455,s3_south_t2_move,-0.0666,-0.012,-1.0104,0.0323,0.0188,0.0249,0.0546,0.9643,0.0,174.79,-0.43,0.82,72.54
353,48.354,s3_south_t2_move,-0.1568,-0.0087,-1.028,0.0103,0.0286,-0.0017,0.0303,0.9644,0.0,174.82,-0.24,0.81,99.17
354,48.5697,s3_south_t2_move,-0.0247,0.0744,-1.061,0.0556,-0.0616,-0.1249,-0.0335,0.9685,0.0,174.83,0.03,0.82,114.54
355,48.7636,s3_south_t2_move,0.0933,-0.0074,-1.0777,-0.1495,-0.0085,0.033,-0.0778,0.9711,0.0,174.93,0.09,0.68,89.81
356,48.8789,s3_south_t2_move,0.0098,0.0332,-1.0088,-0.0035,0.0063,-0.0197,-0.1158,0.9736,0.0,174.82,0.04,0.61,10.6
357,48.9978,s3_south_t2_move,-0.0553,-0.0056,-1.0289,-0.0157,-0.016,-0.0034,-0.1328,0.9757,0.0,174.85,0.02,0.61,14.08
358,49.1143,s3_south_t2_move,-0.0553,-0.0056,-1.0289,-0.0157,-0.016,-0.0034,-0.1328,0.9757,0.0,174.85,0.02,0.61,15.18
359,49.239,s3_south_t2_stop,0.0121,0.0857,-1.0108,-0.0078,-0.0174,-0.0813,-0.1682,0.9828,0.0,174.77,0.02,0.59,18.57
360,49.3551,s3_south_t2_stop,-0.0253,0.0264,-1.007,0.0219,0.0033,-0.124,-0.1971,0.985,0.0,174.22,0.05,0.59,13.43
361,49.4753,s3_south_t2_stop,-0.026,-0.0176,-1.0104,-0.0123,0.0013,0.0154,-0.2092,0.9863,0.0,173.99,0.0,0.56,11.48
362,49.598,s3_south_t2_stop,-0.0152,0.0136,-1.009,0.02,0.0069,-0.0263,-0.219,0.9876,0.0,173.54,-0.02,0.6,13.38
363,49.72,s3_south_t2_stop,-0.0262,0.0031,-1.0127,0.0097,-0.0066,-0.0793,-0.219,0.9876,0.0,173.54,-0.02,0.6,19.76
364,49.8397,s3_south_t2_stop,-0.0269,-0.0065,-1.015,-0.0016,0.0024,0.0006,-0.2368,0.9899,0.0,173.62,0.03,0.58,18.07
365,49.9568,s3_south_t2_stop,-0.0171,0.0048,-1.0137,-0.0057,-0.0023,0.0015,-0.2368,0.9899,0.0,173.62,0.03,0.58,13.96
366,50.0764,s3_south_t2_stop,-0.021,-0.0024,-1.0137,-0.0053,-0.0046,0.0085,-0.2397,0.9901,0.0,173.6,0.02,0.59,11.49
367,50.1996,s3_south_turn_right,-0.0084,0.0034,-1.0126,-0.0085,-0.0008,0.0003,-0.2382,0.991,0.0,173.71,0.03,0.6,19.24
368,50.3204,s3_south_turn_right,0.0201,0.0316,-1.0241,-0.0266,-0.0178,0.5539,-0.2356,0.9948,0.0,177.82,-0.03,0.56,19.28
369,50.439,s3_south_turn_right,0.0057,0.0117,-1.0274,-0.0178,-0.0206,0.7417,-0.2369,0.9947,0.0,-178.57,-0.07,0.56,16.12
370,50.5619,s3_south_turn_right,-0.03,-0.0293,-1.02,-0.0068,-0.0204,0.7634,-0.2382,0.9946,0.0,-174.52,-0.13,0.55,21.52
371,50.6807,s3_south_turn_right,0.0096,-0.0036,-1.0134,-0.0055,0.0121,0.7665,-0.2378,0.9944,0.0,-170.2,-0.22,0.58,16.39
372,50.7995,s3_south_turn_right,0.0229,-0.001,-1.0084,-0.0333,0.0057,0.7504,-0.2382,0.9937,0.0,-165.84,-0.3,0.56,12.53
373,50.9196,s3_south_turn_right,0.0229,-0.001,-1.0084,-0.0333,0.0057,0.7504,-0.2382,0.9937,0.0,-161.57,-0.42,0.63,17.37
374,51.0358,s3_south_turn_right,0.0244,0.0288,-1.0233,-0.0523,0.0009,0.8022,-0.2402,0.9943,0.0,-152.47,-0.55,0.49,11.81
375,51.1593,s3_south_turn_right,0.0244,0.0288,-1.0233,-0.0523,0.0009,0.8022,-0.2402,0.9943,0.0,-152.47,-0.55,0.49,13.5
376,51.2804,s3_south_turn_right,-0.0243,-0.0322,-0.9965,0.0103,-0.0027,0.8489,-0.2412,0.9937,0.0,-148.23,-0.63,0.4,17.88
377,51.3953,s3_south_turn_right,0.0239,0.0155,-1.0125,-0.0161,0.0046,0.7301,-0.2407,0.9923,0.0,-143.44,-0.67,0.35,13.37
378,51.5155,s3_south_turn_right,0.0053,-0.0361,-1.0079,-0.0078,0.0083,0.8362,-0.2412,0.993,0.0,-134.57,-0.75,0.19,11.45
379,51.8377,s3_south_turn_right,0.0063,0.0085,-1.0156,-0.0114,-0.0262,0.7878,-0.2417,0.9921,0.0,-130.08,-0.8,0.12,212.58
380,51.9595,s3_south_turn_right,0.0111,-0.0327,-1.0153,-0.0302,0.0199,0.8131,-0.2414,0.9905,0.0,-116.66,-0.93,-0.11,12.56
381,52.0786,s3_south_turn_right,-0.0044,0.0448,-1.0158,0.0178,-0.0323,0.7383,-0.2425,0.9894,0.0,-105.41,-1.0,-0.34,16.62
382,52.1925,s3_south_turn_right,-0.0044,0.0448,-1.0158,0.0178,-0.0323,0.7383,-0.2425,0.9894,0.0,-105.41,-1.0,-0.34,9.07
383,52.4448,s4_west_t1_move,0.0267,0.0794,-1.0149,-0.0028,0.011,0.4228,-0.2415,0.9888,0.0,-97.71,-1.01,-0.5,151.39
384,52.5781,s4_west_t1_move,-0.0013,0.0004,-1.0176,0.0022,-0.0192,0.0571,-0.2424,0.979,0.0,-97.79,-1.02,-0.47,24.24
385,52.6935,s4_west_t1_move,0.0333,-0.005,-1.0143,0.0099,-0.0033,-0.0456,-0.2443,0.9725,0.0,-98.09,-1.07,-0.4,11.91
386,52.8212,s4_west_t1_move,-0.0189,-0.0035,-1.0148,0.0037,-0.003,0.0002,-0.2467,0.966,0.0,-98.11,-1.12,-0.35,17.5
387,52.9402,s4_west_t1_move,0.0032,0.0065,-1.013,0.0002,0.0104,0.0059,-0.248,0.9611,0.0,-98.02,-1.09,-0.32,15.98
388,53.064,s4_west_t1_move,0.0219,-0.0201,-1.0198,-0.0064,-0.0001,0.0105,-0.251,0.9465,0.0,-97.98,-1.1,-0.3,11.78
389,53.1794,s4_west_t1_move,-0.0202,0.0026,-1.0115,-0.0074,0.0045,0.0017,-0.2514,0.9388,0.0,-97.98,-1.1,-0.3,12.0
390,53.3011,s4_west_t1_move,-0.0236,-0.0233,-1.0183,-0.0108,-0.0051,0.0634,-0.2501,0.9297,0.0,-97.88,-1.11,-0.27,17.83
391,53.4214,s4_west_t1_move,0.0061,-0.0226,-1.0122,0.0011,-0.0022,-0.0329,-0.2494,0.9218,0.0,-98.0,-1.13,-0.24,17.14
392,53.5401,s4_west_t1_move,0.008,0.0312,-1.0172,-0.0144,-0.0087,0.0094,-0.2479,0.9038,0.0,-97.95,-1.16,-0.27,14.05
393,53.6615,s4_west_t1_move,-0.0246,-0.0023,-1.0156,-0.0094,0.0014,0.0036,-0.2466,0.8952,0.0,-98.03,-1.15,-0.28,9.43
394,53.8411,s4_west_t1_move,0.0274,-0.0015,-1.0145,-0.0123,0.0053,-0.0213,-0.2458,0.8842,0.0,-98.03,-1.15,-0.28,78.61
395,53.9731,s4_west_t1_move,-0.021,0.0346,-1.0139,-0.0241,0.0033,-0.0312,-0.2425,0.8649,0.0,-97.96,-1.22,-0.27,22.58
396,54.15,s4_west_t1_move,0.0317,0.0105,-1.0218,-0.0308,-0.0053,-0.0427,-0.2409,0.8546,0.0,-98.14,-1.23,-0.31,71.42
397,54.2587,s4_west_t1_move,-0.0153,-0.059,-1.0285,0.0029,-0.014,0.1007,-0.2388,0.844,0.0,-97.85,-1.3,-0.17,4.72
398,54.423,s4_west_t1_move,-0.0284,-0.0095,-1.0076,0.0014,0.0077,0.012,-0.2348,0.8223,0.0,-97.98,-1.29,-0.24,59.2
399,54.5761,s4_west_t1_move,0.0186,0.0262,-1.0171,0.0046,-0.001,-0.0668,-0.2301,0.8004,0.0,-98.16,-1.28,-0.2,48.43
400,54.7209,s4_west_t1_move,-0.0455,0.0198,-1.0075,-0.0105,0.0132,-0.033,-0.2263,0.7886,0.0,-97.98,-1.31,-0.23,41.58
401,54.8369,s4_west_t1_move,0.0176,-0.0298,-1.0172,-0.0189,0.0013,0.0009,-0.223,0.7779,0.0,-97.97,-1.29,-0.27,11.75
402,55.0511,s4_west_t1_move,-0.0102,-0.0077,-1.0094,-0.0149,0.0257,0.0415,-0.2169,0.74,0.0,-97.83,-1.36,-0.23,110.66
403,55.2016,s4_west_t1_move,-0.0057,0.0156,-1.0273,-0.0083,-0.0074,-0.026,-0.2161,0.7289,0.0,-98.01,-1.37,-0.24,48.63
404,55.3534,s4_west_t1_move,0.046,0.0207,-1.0173,-0.0145,0.0135,0.0118,-0.2139,0.7153,0.0,-97.98,-1.4,-0.26,48.77
405,55.4866,s4_west_t1_move,-0.0742,-0.0337,-1.013,-0.0027,0.0131,-0.0159,-0.2097,0.6924,0.0,-97.99,-1.38,-0.26,23.61
406,55.679,s4_west_t1_move,-0.0068,-0.0199,-1.0133,-0.0105,0.0004,-0.0028,-0.2068,0.6677,0.0,-97.99,-1.42,-0.25,83.01
407,55.8146,s4_west_t1_move,0.0409,0.0411,-1.0158,-0.0019,-0.0066,-0.0081,-0.2053,0.6548,0.0,-98.01,-1.43,-0.23,30.44
408,55.9665,s4_west_t1_move,-0.0001,0.0281,-1.0126,0.0044,0.0012,-0.0116,-0.2053,0.6412,0.0,-97.98,-1.45,-0.26,41.95
409,56.1181,s4_west_t1_move,-0.0444,0.0523,-1.0045,0.0039,-0.002,-0.0533,-0.2047,0.6176,0.0,-97.93,-1.46,-0.33,42.51
410,56.2766,s4_west_t1_move,-0.0444,0.0523,-1.0045,0.0039,-0.002,-0.0533,-0.2057,0.6055,0.0,-98.04,-1.44,-0.23,54.54
411,56.4369,s4_west_t1_move,-0.0644,-0.0244,-1.0191,0.0004,-0.0034,0.0396,-0.2084,0.5758,0.0,-98.05,-1.45,-0.23,57.4
412,56.5599,s4_west_t1_move,0.0821,-0.0149,-1.0195,-0.025,-0.0053,0.0263,-0.2104,0.5677,0.0,-97.91,-1.37,-0.2,9.84
413,56.6807,s4_west_t1_move,-0.0985,0.0015,-0.9929,0.0208,0.001,-0.0282,-0.2128,0.5537,0.0,-97.99,-1.41,-0.19,7.97
414,56.8016,s4_west_t1_move,0.0686,0.0086,-1.0138,-0.0112,0.0197,-0.0344,-0.2189,0.5348,0.0,-98.03,-1.34,-0.15,15.53
415,56.9138,s4_west_t1_move,-0.0561,0.0148,-1.011,0.0084,0.0226,-0.0266,-0.2236,0.5248,0.0,-97.95,-1.35,-0.17,6.28
416,57.114,s4_west_t1_move,0.0814,-0.0625,-1.015,-0.0039,-0.0059,0.0613,-0.2254,0.519,0.0,-98.04,-1.27,-0.14,91.13
417,57.2398,s4_west_t1_move,-0.1226,0.1107,-1.0099,0.0378,-0.0155,-0.1293,-0.2318,0.5008,0.0,-97.86,-1.3,-0.18,21.78
418,57.3585,s4_west_t1_move,-0.0752,0.0335,-1.0127,-0.0323,0.0035,-0.0209,-0.2372,0.4921,0.0,-97.88,-1.25,-0.15,13.52
419,57.5786,s4_west_t1_move,-0.0248,-0.0931,-1.013,-0.0018,0.0134,-0.0148,-0.2404,0.4869,0.0,-98.08,-1.23,-0.18,118.32
420,57.7012,s4_west_t1_move,-0.1157,0.0966,-1.0127,0.0016,0.0037,-0.0215,-0.2504,0.4755,0.0,-97.8,-1.21,-0.2,16.19
421,57.8203,s4_west_t1_move,0.0993,-0.0501,-1.0169,-0.0123,0.0236,-0.0279,-0.2504,0.4755,0.0,-97.85,-1.16,-0.17,14.08
422,57.9398,s4_west_t1_move,-0.0797,-0.089,-1.0074,-0.0256,-0.0077,0.0986,-0.2629,0.4714,0.0,-97.72,-1.2,-0.13,18.26
423,58.0589,s4_west_t1_stop,-0.0378,-0.0665,-1.0183,-0.024,-0.0003,-0.0406,-0.2652,0.4704,0.0,-97.94,-1.18,-0.14,15.92
424,58.2566,s4_west_t1_stop,0.0047,0.0515,-1.0139,-0.0118,0.0032,0.0192,-0.2711,0.4705,0.0,-97.93,-1.18,-0.19,91.79
425,58.3771,s4_west_t1_stop,-0.0059,-0.0242,-1.018,-0.0077,-0.0018,-0.0002,-0.2715,0.4694,0.0,-97.86,-1.17,-0.19,11.69
426,58.4991,s4_west_t1_stop,0.0006,-0.0099,-1.0135,-0.0049,-0.0013,0.0084,-0.2717,0.4695,0.0,-97.87,-1.17,-0.19,18.21
427,58.619,s4_west_t1_stop,0.0022,0.006,-1.0132,-0.0038,0.0049,-0.0062,-0.2716,0.469,0.0,-97.86,-1.17,-0.19,17.41
428,58.7397,s4_west_t1_stop,-0.0065,-0.0047,-1.0141,-0.0054,0.0008,0.0023,-0.2716,0.469,0.0,-97.86,-1.17,-0.19,16.6
429,58.861,s4_west_t1_stop,-0.0007,0.0015,-1.0136,-0.0057,-0.0015,0.0008,-0.2714,0.4691,0.0,-97.85,-1.17,-0.19,16.5
430,58.9793,s4_west_t1_stop,-0.0003,-0.0029,-1.0143,-0.0064,-0.0004,0.0015,-0.2714,0.4691,0.0,-97.85,-1.17,-0.19,12.97
431,59.0987,s4_west_t2_move,-0.002,-0.0031,-1.0154,-0.0037,0.0013,0.0007,-0.2715,0.4687,0.0,-97.85,-1.17,-0.19,17.37
432,59.2211,s4_west_t2_move,-0.0027,-0.0025,-1.0155,-0.0061,-0.0006,0.0029,-0.2697,0.4648,0.0,-97.95,-1.09,-0.21,18.23
433,59.3365,s4_west_t2_move,0.098,0.0222,-1.0171,0.0198,-0.0001,0.0274,-0.2697,0.4648,0.0,-97.95,-1.09,-0.21,11.59
434,59.4609,s4_west_t2_move,0.0269,-0.0343,-1.0132,-0.0105,0.0122,-0.0166,-0.2634,0.4446,0.0,-97.79,-1.13,-0.18,14.6
435,59.6181,s4_west_t2_move,0.0269,-0.0343,-1.0132,-0.0105,0.0122,-0.0166,-0.2634,0.4446,0.0,-97.79,-1.13,-0.18,41.6
436,59.8242,s4_west_t2_move,-0.071,-0.0726,-1.0203,0.0054,-0.0066,0.0303,-0.2623,0.4212,0.0,-97.75,-0.99,-0.19,92.42
437,59.9391,s4_west_t2_move,-0.0687,0.0038,-1.0095,-0.0044,0.0002,-0.01,-0.2619,0.4107,0.0,-97.86,-1.01,-0.27,13.76
438,60.2327,s4_west_t2_move,-0.0008,-0.0422,-1.0167,-0.0039,0.0083,0.0125,-0.2611,0.3966,0.0,-97.89,-0.94,-0.32,191.74
439,60.4355,s4_west_t2_move,0.0837,0.0003,-1.0145,-0.017,0.014,-0.0084,-0.2618,0.3758,0.0,-97.86,-0.9,-0.36,97.28
440,60.6447,s4_west_t2_move,-0.0311,0.0291,-1.006,-0.0213,0.0073,-0.0114,-0.2634,0.3584,0.0,-97.87,-0.9,-0.41,105.4
441,61.0516,s4_west_t2_move,-0.0827,-0.0069,-1.0194,-0.0129,-0.0151,0.0169,-0.2657,0.3407,0.0,-97.87,-0.96,-0.42,300.47
442,61.1841,s4_west_t2_move,0.1042,-0.0051,-1.0125,-0.0205,-0.0082,-0.0061,-0.2774,0.2992,0.0,-97.71,-0.9,-0.49,26.11
443,61.2927,s4_west_t2_move,-0.125,0.0091,-1.0174,-0.0125,-0.0096,-0.0546,-0.2774,0.2992,0.0,-98.04,-0.95,-0.45,6.56
444,61.4193,s4_west_t2_move,-0.0262,0.0249,-1.0168,0.0116,-0.0104,-0.0606,-0.2833,0.2818,0.0,-97.97,-1.0,-0.44,17.94
445,61.5397,s4_west_t2_move,-0.0481,0.017,-1.0229,-0.0035,0.0097,0.0849,-0.2861,0.2775,0.0,-97.7,-0.97,-0.39,17.39
446,61.6527,s4_west_t2_move,0.0619,-0.073,-1.021,-0.011,-0.0089,-0.0398,-0.2893,0.268,0.0,-97.88,-0.99,-0.36,8.6
447,61.871,s4_west_t2_move,0.0619,-0.073,-1.021,-0.011,-0.0089,-0.0398,-0.296,0.2591,0.0,-97.88,-0.99,-0.36,117.3
448,62.0748,s4_west_t2_move,-0.1006,0.0608,-1.0211,-0.0014,-0.0055,-0.0191,-0.3005,0.2416,0.0,-97.79,-1.07,-0.42,96.51
449,62.2002,s4_west_t2_move,-0.0629,0.0525,-1.0171,-0.0308,-0.0048,-0.0365,-0.3123,0.2126,0.0,-97.75,-1.08,-0.36,21.38
450,62.3208,s4_west_t2_move,0.0972,0.0193,-1.015,-0.0322,0.0078,0.0636,-0.3141,0.2064,0.0,-97.86,-1.05,-0.33,15.17
451,62.4401,s4_west_t2_move,-0.1648,0.0228,-0.984,0.0375,0.0133,-0.0589,-0.318,0.1922,0.0,-97.97,-1.12,-0.4,18.54
452,62.5602,s4_west_t2_move,0.1096,-0.0023,-1.0009,-0.0581,0.0223,0.0675,-0.32,0.1884,0.0,-98.08,-1.1,-0.3,17.82
453,62.6779,s4_west_t2_move,-0.0931,0.0147,-1.0004,0.0111,-0.02,-0.0369,-0.3252,0.175,0.0,-97.86,-1.1,-0.38,3.02
454,62.8016,s4_west_t2_move,0.0721,0.091,-1.0174,-0.0253,0.014,-0.032,-0.3293,0.1579,0.0,-97.55,-1.09,-0.36,18.16
455,62.9196,s4_west_t2_move,0.0011,-0.0035,-1.0115,-0.0088,-0.0106,-0.0521,-0.3293,0.1579,0.0,-97.73,-1.06,-0.43,12.83
456,63.0381,s4_west_t2_move,0.0011,-0.0035,-1.0115,-0.0088,-0.0106,-0.0521,-0.3314,0.1482,0.0,-97.81,-1.1,-0.39,16.01
457,63.1557,s4_west_t2_move,0.0591,-0.0037,-1.0199,-0.0077,-0.0051,-0.0209,-0.3358,0.1302,0.0,-97.9,-1.12,-0.48,11.8
458,63.2793,s4_west_t2_move,0.0275,-0.0103,-1.0095,-0.0322,0.0211,0.0084,-0.3376,0.1224,0.0,-97.87,-1.08,-0.49,13.03
459,63.4004,s4_west_t2_move,0.0252,-0.0066,-1.0163,0.0018,-0.0127,0.0115,-0.3397,0.1136,0.0,-97.82,-1.13,-0.48,13.96
460,63.52,s4_west_t2_move,-0.0837,0.0155,-1.0072,-0.003,0.0135,0.0237,-0.3424,0.1018,0.0,-97.82,-1.12,-0.48,18.22
461,63.6381,s4_west_t2_move,0.0846,0.0025,-1.0178,-0.0057,0.0066,0.0048,-0.3454,0.079,0.0,-97.87,-1.11,-0.48,8.15
462,63.7589,s4_west_t2_move,-0.0793,-0.0222,-1.0153,0.0025,-0.0158,0.008,-0.3454,0.079,0.0,-97.9,-1.17,-0.42,13.52
463,63.881,s4_west_t2_move,-0.0066,-0.004,-1.0228,-0.0007,-0.0181,-0.0081,-0.3484,0.0601,0.0,-97.88,-1.15,-0.47,20.64
464,63.9987,s4_west_t2_move,-0.0066,-0.004,-1.0228,-0.0007,-0.0181,-0.0081,-0.3496,0.0525,0.0,-97.9,-1.16,-0.43,17.07
465,64.1228,s4_west_t2_move,-0.0298,0.0004,-1.0116,-0.0007,0.0048,0.0086,-0.3496,0.0525,0.0,-97.9,-1.16,-0.43,19.58
466,64.2387,s4_west_t2_move,-0.0617,-0.005,-1.0154,0.0019,-0.001,-0.0127,-0.3515,0.0324,0.0,-97.87,-1.15,-0.44,14.23
467,64.5336,s4_west_t2_stop,0.0607,-0.0224,-1.0164,-0.0181,0.0097,0.0301,-0.3527,0.0117,0.0,-97.72,-1.12,-0.48,192.9
468,64.6603,s4_west_t2_stop,-0.0329,-0.0052,-1.0056,-0.0128,0.0165,-0.0039,-0.3553,-0.0048,0.0,-98.13,-1.17,-0.45,22.28
469,64.7817,s4_west_t2_stop,-0.0623,0.005,-1.012,-0.0056,0.0102,-0.0267,-0.3555,-0.0051,0.0,-98.23,-1.15,-0.45,16.96
470,64.8991,s4_west_t2_stop,-0.0623,0.005,-1.012,-0.0056,0.0102,-0.0267,-0.3555,-0.0051,0.0,-98.33,-1.18,-0.46,12.89
471,65.0202,s4_west_t2_stop,-0.0067,-0.0131,-1.0172,0.0027,-0.0018,0.0094,-0.3541,0.0044,0.0,-98.32,-1.19,-0.44,18.33
472,65.1401,s4_west_t2_stop,0.001,0.0102,-1.0145,-0.006,0.0069,-0.0137,-0.353,0.0086,0.0,-98.32,-1.19,-0.44,16.37
473,65.2603,s4_west_t2_stop,0.0009,-0.0107,-1.0141,-0.0104,0.0053,0.0013,-0.3524,0.0123,0.0,-98.32,-1.16,-0.49,15.85
474,65.5571,s4_west_turn_right,0.0029,0.0002,-1.0133,-0.0096,0.0044,-0.0008,-0.3516,0.0182,0.0,-98.28,-1.13,-0.53,180.82
475,65.6807,s4_west_turn_right,0.0258,0.027,-1.0103,0.0102,0.0097,0.592,-0.3536,0.0217,0.0,-87.27,-1.15,-0.66,7.95
476,66.1771,s4_west_turn_right,-0.0359,-0.0232,-1.0189,0.0041,-0.0038,0.7022,-0.3543,0.0212,0.0,-83.1,-1.06,-0.66,381.2
477,66.3007,s4_west_turn_right,-0.0685,-0.1812,-0.9918,0.0008,-0.0037,0.9009,-0.3544,0.0175,0.0,-70.15,-1.04,-0.88,17.63
478,66.4202,s4_west_turn_right,-0.0004,-0.0127,-1.0366,0.0091,-0.0322,0.7618,-0.353,0.0199,0.0,-56.31,-0.86,-1.25,15.92
479,66.5406,s4_west_turn_right,-0.0036,-0.003,-1.0189,-0.0213,-0.002,0.7796,-0.3525,0.0192,0.0,-51.82,-0.8,-1.29,14.93
480,66.6597,s4_west_turn_right,-0.0036,-0.003,-1.0189,-0.0213,-0.002,0.7796,-0.3525,0.0192,0.0,-51.82,-0.8,-1.29,18.65
481,66.7759,s4_west_turn_right,0.011,0.0198,-1.0209,-0.0137,0.0044,0.7554,-0.3539,0.0181,0.0,-42.79,-0.63,-1.46,12.7
482,66.9012,s4_west_turn_right,-0.0056,0.0153,-1.0271,-0.0412,-0.0135,0.7822,-0.3531,0.0188,0.0,-38.43,-0.53,-1.51,16.5
483,67.0193,s4_west_turn_right,0.0052,-0.008,-1.0132,0.0005,-0.0175,0.7534,-0.3522,0.0194,0.0,-29.3,-0.4,-1.6,13.65
484,67.1401,s4_west_turn_right,0.0039,0.0209,-1.0156,0.0132,-0.0183,0.7618,-0.3522,0.0194,0.0,-29.3,-0.4,-1.6,19.0
485,67.261,s4_west_turn_right,-0.0155,-0.0061,-1.0084,0.0291,-0.0133,0.7492,-0.3524,0.0188,0.0,-20.44,-0.19,-1.68,18.82
486,67.3767,s4_west_turn_right,-0.0155,-0.0061,-1.0084,0.0291,-0.0133,0.7492,-0.3524,0.0188,0.0,-20.44,-0.19,-1.68,12.97
