step,time_s,phase,acc_x,acc_y,acc_z,gyro_x,gyro_y,gyro_z,pos_x,pos_y,pos_z,yaw,pitch,roll,latency_ms
0,0.0157,s1_north_t1_move,-0.006,0.0064,-1.0104,-0.0029,0.002,0.001,0.0,-0.0,0.0,0.04,-0.18,-0.36,15.74
1,0.1405,s1_north_t1_move,0.0027,0.0094,-1.0042,0.0032,0.0131,-0.0015,0.0,-0.0,0.0,0.04,-0.18,-0.36,16.56
2,0.2639,s1_north_t1_move,0.1025,0.011,-1.0013,-0.0052,-0.0099,0.0126,0.0037,-0.0001,0.0,-0.02,-0.18,-0.3,15.47
3,0.3799,s1_north_t1_move,0.1674,-0.0047,-1.0168,-0.0122,0.0215,0.0357,0.0177,-0.0002,0.0,0.13,-0.16,-0.34,0.0
4,0.5027,s1_north_t1_move,0.1674,-0.0047,-1.0168,-0.0122,0.0215,0.0357,0.0177,-0.0002,0.0,0.13,-0.16,-0.34,0.0
5,0.7337,s1_north_t1_move,-0.0373,0.0287,-1.0065,-0.0012,0.0118,0.0066,0.0384,-0.001,0.0,-0.03,-0.24,-0.34,104.36
6,1.0017,s1_north_t1_move,-0.1751,0.001,-1.0112,-0.0028,-0.0145,-0.0141,0.057,0.0002,0.0,-0.02,-0.21,-0.39,153.77
7,1.1341,s1_north_t1_move,-0.1287,0.0265,-1.007,0.0044,0.0113,-0.0084,0.0708,0.0012,0.0,0.05,-0.2,-0.38,9.41
8,1.2462,s1_north_t1_move,-0.1287,0.0265,-1.007,0.0044,0.0113,-0.0084,0.0833,0.0012,0.0,0.04,-0.18,-0.34,0.0
9,1.3615,s1_north_t1_move,-0.1635,-0.0098,-1.0129,-0.0045,-0.0106,-0.0078,0.1012,0.0013,0.0,0.02,-0.23,-0.36,0.0
10,1.4908,s1_north_t1_move,0.0756,-0.0311,-0.9881,-0.0483,0.0257,0.0654,0.1148,0.0011,0.0,0.02,-0.15,-0.34,0.0
11,1.7553,s1_north_t1_move,0.0756,-0.0311,-0.9881,-0.0483,0.0257,0.0654,0.1148,0.0011,0.0,0.07,-0.17,-0.44,144.08
12,1.8981,s1_north_t1_move,-0.1249,0.0637,-1.0303,0.0074,-0.0062,-0.0531,0.1464,0.0006,0.0,0.05,-0.15,-0.41,24.16
13,2.0348,s1_north_t1_move,0.1187,-0.0275,-1.0145,-0.0001,-0.0057,0.0393,0.1676,0.0001,0.0,0.08,-0.08,-0.36,20.83
14,2.3605,s1_north_t1_move,-0.2386,-0.0008,-1.0122,0.0049,0.0065,0.0061,0.1768,0.0001,0.0,0.08,-0.08,-0.36,209.98
15,2.9016,s1_north_t1_move,-0.0772,0.0047,-1.0064,0.0123,0.0291,-0.0119,0.1985,0.0001,0.0,0.04,-0.03,-0.3,428.7
16,3.0244,s1_north_t1_move,0.1371,0.0005,-1.0167,0.0269,-0.022,0.0027,0.2462,0.0011,0.0,-0.03,0.0,-0.29,9.6
17,3.1631,s1_north_t1_move,-0.1036,0.0046,-1.0146,-0.0247,-0.003,0.0289,0.2576,0.0014,0.0,-0.15,-0.01,-0.25,19.89
18,3.2867,s1_north_t1_move,-0.1036,0.0046,-1.0146,-0.0247,-0.003,0.0289,0.2576,0.0014,0.0,-0.15,-0.01,-0.25,0.0
19,3.4076,s1_north_t1_move,0.0441,0.0203,-1.0217,0.0017,-0.0225,-0.0083,0.2737,0.0021,0.0,-0.01,-0.05,-0.22,0.0
20,3.5378,s1_north_t1_move,0.0441,0.0203,-1.0217,0.0017,-0.0225,-0.0083,0.2737,0.0021,0.0,-0.01,-0.05,-0.22,8.21
21,3.813,s1_north_t1_move,0.0481,-0.0003,-1.0092,-0.0178,0.0031,0.0522,0.2862,0.0032,0.0,0.12,0.03,-0.28,159.26
22,3.9357,s1_north_t1_move,-0.0,0.0702,-1.0169,0.0133,-0.0178,-0.0744,0.2952,0.0038,0.0,0.07,0.06,-0.35,15.66
23,4.0483,s1_north_t1_move,0.0061,-0.0099,-1.0172,0.006,0.0034,0.0435,0.3064,0.0051,0.0,0.15,-0.01,-0.21,5.75
24,4.376,s1_north_t1_move,-0.0038,0.0112,-1.0104,-0.0123,0.0025,-0.0436,0.3162,0.0054,0.0,0.06,0.01,-0.31,207.23
25,4.5112,s1_north_t1_move,0.0045,-0.0071,-1.0082,-0.0008,-0.0025,0.0193,0.3272,0.0065,0.0,-0.07,0.01,-0.33,16.25
26,4.6389,s1_north_t1_move,0.0079,0.0027,-1.0111,-0.0078,-0.0033,0.0037,0.3306,0.0069,0.0,0.12,-0.03,-0.3,21.6
27,4.7564,s1_north_t1_move,-0.0028,-0.0143,-1.0142,-0.0051,-0.003,0.0187,0.3341,0.0067,0.0,0.15,-0.06,-0.3,0.0
28,4.8936,s1_north_t1_move,-0.012,-0.0004,-1.0065,0.0003,0.0074,-0.019,0.3401,0.0077,0.0,-0.01,-0.05,-0.36,16.02
29,5.018,s1_north_t1_move,-0.012,-0.0004,-1.0065,0.0003,0.0074,-0.019,0.3401,0.0077,0.0,-0.01,-0.05,-0.36,15.92
30,5.149,s1_north_t1_move,-0.0023,-0.0027,-1.0084,-0.0021,0.0011,0.0159,0.3452,0.0079,0.0,-0.03,-0.03,-0.39,11.25
31,5.3882,s1_north_t1_move,-0.0009,0.0045,-1.0108,-0.0023,0.0022,0.0063,0.3487,0.0087,0.0,-0.02,-0.03,-0.38,130.95
32,5.5024,s1_north_t1_move,0.0103,0.0083,-1.0127,0.0009,-0.0054,0.0192,0.3556,0.0087,0.0,0.01,-0.04,-0.37,0.0
33,5.6269,s1_north_t1_move,0.0055,0.0228,-1.008,0.0027,0.0042,-0.0075,0.3572,0.0086,0.0,0.07,-0.06,-0.34,0.0
34,5.7706,s1_north_t1_move,0.0055,0.0228,-1.008,0.0027,0.0042,-0.0075,0.3572,0.0086,0.0,0.07,-0.06,-0.34,15.88
35,5.8933,s1_north_t1_move,-0.0037,0.005,-1.0081,-0.004,-0.005,-0.0038,0.3602,0.0084,0.0,0.09,-0.12,-0.34,15.65
36,6.0583,s1_north_t1_move,0.0041,0.0008,-1.0099,-0.0062,0.0001,0.0158,0.3623,0.009,0.0,0.1,-0.12,-0.35,47.15
37,6.1933,s1_north_t1_move,-0.0046,-0.0057,-1.0111,-0.0041,0.0029,0.0101,0.3655,0.0093,0.0,0.06,-0.11,-0.39,17.16
38,6.3898,s1_north_t1_move,0.0026,0.0188,-1.0095,-0.0055,-0.0023,-0.0114,0.3662,0.0094,0.0,0.06,-0.12,-0.4,80.85
39,7.0805,s1_north_t1_move,-0.0273,-0.0234,-1.0154,-0.0041,0.0013,0.0214,0.37,0.0103,0.0,0.03,-0.12,-0.41,571.15
40,7.2044,s1_north_t1_move,-0.0014,0.033,-1.0087,0.0037,-0.0047,-0.0408,0.3759,0.0105,0.0,0.03,-0.15,-0.43,0.0
41,7.3354,s1_north_t1_move,0.0104,-0.0081,-1.0098,0.0032,-0.0003,0.0083,0.3764,0.01,0.0,0.01,-0.16,-0.42,15.69
42,7.4497,s1_north_t1_move,0.0104,-0.0081,-1.0098,0.0032,-0.0003,0.0083,0.3764,0.01,0.0,0.03,-0.17,-0.42,7.38
43,7.5639,s1_north_t1_move,0.017,0.0062,-1.0116,-0.0093,0.0004,0.022,0.3775,0.0089,0.0,-0.03,-0.17,-0.43,0.0
44,7.6858,s1_north_t1_move,-0.0021,0.0261,-1.009,-0.0073,-0.0064,-0.016,0.3778,0.009,0.0,0.02,-0.18,-0.42,0.0
45,7.8158,s1_north_t1_move,-0.0028,-0.026,-1.0108,-0.0038,-0.0092,0.0014,0.379,0.0084,0.0,0.08,-0.19,-0.43,16.08
46,7.9223,s1_north_t1_move,0.0366,0.0052,-1.0117,0.0047,0.0159,0.0088,0.3786,0.0079,0.0,0.08,-0.2,-0.43,0.0
47,8.0583,s1_north_t1_move,-0.0307,0.0604,-1.0026,-0.0035,0.0038,-0.0408,0.3791,0.0073,0.0,0.08,-0.2,-0.43,16.04
48,8.1756,s1_north_t1_move,0.047,0.0112,-1.0092,-0.0139,0.0202,0.0068,0.3795,0.0059,0.0,-0.0,-0.22,-0.45,5.47
49,8.2993,s1_north_t1_move,-0.0774,0.0085,-1.0042,-0.0033,-0.0,-0.0117,0.379,0.0051,0.0,-0.0,-0.22,-0.45,17.32
50,8.4142,s1_north_t1_move,0.0748,-0.0042,-1.0113,-0.0023,-0.0093,0.0142,0.3804,0.0049,0.0,-0.03,-0.23,-0.44,8.51
51,8.5274,s1_north_t1_move,-0.0266,-0.0035,-1.0094,0.0002,0.0106,-0.0261,0.3799,0.0044,0.0,-0.0,-0.22,-0.43,0.0
52,8.6666,s1_north_t1_move,0.0606,0.0031,-1.0146,-0.0085,0.0001,-0.0529,0.3806,0.0021,0.0,0.13,-0.24,-0.44,15.72
53,8.8807,s1_north_t1_move,-0.0161,0.0667,-1.0034,-0.0066,0.0009,0.0433,0.3812,0.002,0.0,0.1,-0.25,-0.45,108.65
54,9.3326,s1_north_t1_move,0.0245,0.0501,-1.0097,-0.007,-0.0077,0.0626,0.38,-0.0001,0.0,0.07,-0.24,-0.47,335.97
55,9.4744,s1_north_t1_move,-0.0566,0.0266,-1.0064,-0.0013,0.0119,0.0094,0.3807,-0.0021,0.0,0.05,-0.28,-0.48,16.02
56,9.7409,s1_north_t1_move,-0.0369,0.0201,-1.0109,-0.0147,-0.006,-0.0006,0.3811,-0.0029,0.0,0.06,-0.3,-0.49,145.21
57,9.8745,s1_north_t1_move,0.0634,0.0034,-1.0132,-0.0018,-0.0002,-0.0114,0.3807,-0.0034,0.0,0.03,-0.29,-0.49,16.1
58,9.9965,s1_north_t1_move,0.0231,0.0104,-1.0105,-0.0077,-0.008,-0.0148,0.3811,-0.004,0.0,0.06,-0.33,-0.5,15.87
59,10.1169,s1_north_t1_stop,-0.0194,0.0251,-1.0063,-0.0006,0.0276,0.0192,0.3819,-0.0046,0.0,0.07,-0.33,-0.5,16.03
60,10.2239,s1_north_t1_stop,-0.0089,0.0114,-1.0101,-0.0012,0.0034,0.002,0.3821,-0.0044,0.0,0.07,-0.33,-0.5,0.0
61,10.3598,s1_north_t1_stop,-0.0004,0.0003,-1.0126,-0.0015,-0.0016,0.0016,0.3812,-0.0046,0.0,0.07,-0.33,-0.5,16.2
62,10.7643,s1_north_t1_stop,0.0008,0.0048,-1.0116,-0.0034,-0.0001,-0.0016,0.3795,-0.005,0.0,0.09,-0.35,-0.5,289.27
63,10.8853,s1_north_t1_stop,0.0005,0.0066,-1.0083,-0.0051,0.0016,0.0009,0.375,-0.0051,0.0,0.09,-0.36,-0.49,0.0
64,11.0093,s1_north_t1_stop,0.0033,0.0067,-1.0133,-0.0068,-0.0001,0.0031,0.3744,-0.0052,0.0,0.09,-0.36,-0.5,0.0
65,11.1232,s1_north_t2_move,0.0033,0.0067,-1.0133,-0.0068,-0.0001,0.0031,0.3744,-0.0052,0.0,0.09,-0.36,-0.5,0.0
66,11.2552,s1_north_t2_move,0.004,0.0068,-1.0102,-0.0056,-0.0001,0.0021,0.3739,-0.0052,0.0,0.09,-0.37,-0.5,9.82
67,11.4542,s1_north_t2_move,0.1229,0.0236,-1.0182,-0.0044,0.0013,-0.0078,0.3754,-0.0056,0.0,0.12,-0.34,-0.48,83.29
68,11.5748,s1_north_t2_move,-0.0539,0.0044,-1.0114,-0.0124,-0.0067,-0.0063,0.3804,-0.0057,0.0,0.15,-0.4,-0.49,16.04
69,11.6968,s1_north_t2_move,0.0219,0.0063,-1.0127,-0.0054,0.0056,-0.0112,0.3821,-0.0056,0.0,0.13,-0.38,-0.5,16.08
70,11.818,s1_north_t2_move,-0.0172,0.0006,-1.0106,-0.0039,-0.0038,-0.0098,0.3903,-0.005,0.0,-0.05,-0.38,-0.49,15.87
71,11.9382,s1_north_t2_move,0.0315,0.0045,-1.0078,0.008,0.0008,0.0035,0.3945,-0.0052,0.0,0.0,-0.37,-0.44,15.95
72,12.2145,s1_north_t2_move,0.0297,0.0093,-1.0123,-0.0161,-0.0042,0.0071,0.406,-0.005,0.0,0.14,-0.36,-0.46,160.48
73,12.4157,s1_north_t2_move,0.0295,0.0135,-1.0106,0.0067,-0.0085,-0.0144,0.4262,-0.0048,0.0,0.1,-0.39,-0.39,79.18
74,12.5343,s1_north_t2_move,-0.0205,0.0123,-1.0058,-0.0451,0.0227,0.0003,0.4339,-0.0044,0.0,0.07,-0.37,-0.5,16.09
75,12.6462,s1_north_t2_move,0.0296,-0.006,-1.0182,0.01,-0.0153,0.006,0.449,-0.0035,0.0,0.08,-0.42,-0.36,0.0
76,12.7715,s1_north_t2_move,-0.0235,0.0049,-1.008,-0.0243,0.0078,0.0115,0.4575,-0.0029,0.0,0.1,-0.37,-0.47,3.83
77,12.8891,s1_north_t2_move,-0.0025,0.0157,-1.0099,0.0,0.0047,0.0132,0.4653,-0.0027,0.0,0.04,-0.37,-0.41,0.0
78,13.0079,s1_north_t2_move,0.0337,-0.021,-1.0164,0.0003,-0.0118,0.0103,0.4757,-0.0023,0.0,0.09,-0.41,-0.39,0.0
79,13.1524,s1_north_t2_move,0.0491,0.0177,-1.0096,0.0007,0.0033,-0.0099,0.4989,-0.0012,0.0,0.1,-0.38,-0.44,16.13
80,13.2719,s1_north_t2_move,0.0112,0.0224,-1.0039,0.0035,-0.0112,-0.0114,0.511,-0.001,0.0,0.14,-0.42,-0.36,6.3
81,13.3859,s1_north_t2_move,-0.0479,0.0206,-1.0134,-0.0018,0.0039,-0.0249,0.5183,-0.0002,0.0,0.14,-0.42,-0.36,0.0
82,13.5084,s1_north_t2_move,0.1003,-0.0115,-1.0176,-0.0143,-0.0043,0.0109,0.5321,0.0002,0.0,0.1,-0.43,-0.36,0.0
83,13.6518,s1_north_t2_move,-0.0711,0.0375,-1.0127,0.0086,-0.0096,-0.036,0.5409,0.0011,0.0,0.1,-0.43,-0.36,15.67
84,14.06,s1_north_t2_move,0.0314,0.0368,-1.0255,0.0006,-0.0311,-0.0481,0.5647,0.0025,0.0,0.11,-0.37,-0.34,287.34
85,14.1741,s1_north_t2_move,-0.0832,-0.1231,-1.0069,0.001,0.006,0.1226,0.5988,0.005,0.0,0.26,-0.38,-0.3,12.11
86,14.2969,s1_north_t2_move,0.0342,0.0087,-1.0146,-0.0277,0.0058,0.0023,0.6241,0.0063,0.0,-0.09,-0.4,-0.35,14.0
87,14.4184,s1_north_t2_move,-0.0382,0.0102,-1.0191,0.0328,-0.0106,-0.0163,0.6374,0.0072,0.0,0.04,-0.37,-0.38,10.0
88,14.6594,s1_north_t2_move,0.0432,0.0237,-1.0108,-0.0271,0.0195,-0.0001,0.6492,0.0082,0.0,0.2,-0.41,-0.3,126.01
89,14.7873,s1_north_t2_move,0.037,0.019,-1.0046,-0.0319,0.027,-0.0123,0.6756,0.0101,0.0,0.12,-0.35,-0.38,16.13
90,14.9084,s1_north_t2_move,-0.0209,0.0286,-1.0096,-0.009,0.0128,-0.0551,0.7025,0.0109,0.0,0.07,-0.34,-0.36,0.0
91,15.035,s1_north_t2_move,0.0668,0.0127,-1.0136,-0.0001,-0.0109,-0.0118,0.7135,0.0117,0.0,0.09,-0.34,-0.34,6.66
92,15.1576,s1_north_t2_move,-0.043,-0.0183,-1.0098,-0.0358,-0.0285,0.0215,0.7288,0.0122,0.0,0.11,-0.48,-0.4,15.91
93,15.2772,s1_north_t2_move,-0.043,-0.0183,-1.0098,-0.0358,-0.0285,0.0215,0.7288,0.0122,0.0,0.11,-0.48,-0.4,11.38
94,15.3904,s1_north_t2_move,-0.0889,0.0006,-1.01,0.0122,-0.0064,-0.0371,0.7693,0.0123,0.0,0.13,-0.48,-0.44,0.0
95,15.5093,s1_north_t2_move,0.1012,-0.0053,-1.005,-0.0357,0.0148,0.0561,0.7854,0.0124,0.0,0.18,-0.48,-0.41,0.0
96,15.9651,s1_north_t2_move,-0.0534,-0.0101,-1.0155,0.004,-0.0245,-0.0245,0.8029,0.0126,0.0,0.05,-0.61,-0.27,334.41
97,16.086,s1_north_t2_stop,-0.0214,0.0267,-1.0112,0.0099,-0.0085,-0.0129,0.8621,0.0107,0.0,0.0,-0.68,-0.25,0.0
98,16.2106,s1_north_t2_stop,-0.0195,-0.0026,-1.0065,-0.0082,0.0113,0.0144,0.8752,0.01,0.0,0.0,-0.69,-0.27,0.0
99,16.3314,s1_north_t2_stop,-0.029,-0.0176,-1.0099,-0.0051,-0.0042,-0.0142,0.8866,0.0106,0.0,-0.08,-0.77,-0.17,0.0
100,16.4511,s1_north_t2_stop,-0.0144,-0.0081,-1.0062,-0.0037,0.0135,0.0233,0.8963,0.0106,0.0,-0.04,-0.71,-0.23,0.0
101,16.9184,s1_north_t2_stop,-0.0238,0.0398,-1.0256,0.0136,-0.0222,-0.0551,0.9048,0.0116,0.0,-0.18,-0.76,-0.22,346.24
102,17.117,s1_north_turn_right,-0.0295,0.0374,-1.0186,0.005,-0.0024,-0.0426,0.9286,0.0118,0.0,-0.64,-0.62,-0.18,81.26
103,17.2566,s1_north_turn_right,0.0282,0.0147,-1.025,-0.0396,-0.0215,0.5578,0.9297,0.0145,0.0,7.12,-0.63,-0.3,15.68
104,17.3788,s1_north_turn_right,0.0282,0.0147,-1.025,-0.0396,-0.0215,0.5578,0.9297,0.0145,0.0,7.12,-0.63,-0.3,13.46
105,17.4973,s1_north_turn_right,-0.0324,-0.0109,-1.0013,0.0339,-0.0039,0.7061,0.9314,0.0131,0.0,11.41,-0.62,-0.41,7.65
106,17.7388,s1_north_turn_right,-0.0051,-0.0014,-1.0086,-0.0014,0.0066,0.7951,0.9319,0.0133,0.0,19.96,-0.63,-0.57,127.87
107,17.8518,s1_north_turn_right,0.0094,0.0356,-1.0194,0.0024,-0.0177,0.7507,0.9323,0.0138,0.0,28.8,-0.63,-0.67,8.75
108,17.9652,s1_north_turn_right,-0.0015,0.0248,-1.0046,0.0238,-0.0217,0.7678,0.9347,0.014,0.0,37.63,-0.59,-0.72,0.0
109,18.0863,s1_north_turn_right,0.0021,-0.0373,-0.9908,-0.0542,0.0338,0.8378,0.9335,0.0144,0.0,37.63,-0.59,-0.72,0.0
110,18.2076,s1_north_turn_right,-0.0092,-0.0066,-1.0181,0.0262,-0.0217,0.7577,0.9329,0.0156,0.0,46.8,-0.53,-0.91,0.0
111,18.3295,s1_north_turn_right,0.0228,0.0578,-1.0394,0.0012,-0.0063,0.7137,0.9338,0.0156,0.0,51.05,-0.55,-0.89,0.0
112,18.5002,s1_north_turn_right,0.0102,0.0061,-1.0048,-0.019,0.0003,0.8223,0.9353,0.015,0.0,55.65,-0.5,-0.97,48.23
113,18.6093,s1_north_turn_right,0.0019,0.0008,-1.0136,-0.0353,-0.0104,0.8053,0.934,0.0161,0.0,60.13,-0.48,-0.96,0.0
114,18.7283,s1_north_turn_right,0.0019,0.0008,-1.0136,-0.0353,-0.0104,0.8053,0.934,0.0161,0.0,64.55,-0.45,-1.0,0.0
115,18.8682,s1_north_turn_right,-0.0132,0.057,-0.9721,0.0684,-0.0015,0.7151,0.9354,0.0146,0.0,73.59,-0.47,-1.05,16.0
116,18.9697,s1_north_turn_right,0.0225,0.018,-1.0198,-0.0327,0.0039,0.7692,0.9354,0.0146,0.0,78.13,-0.38,-1.02,0.0
117,19.1735,s2_east_t1_move,0.0225,0.018,-1.0198,-0.0327,0.0039,0.7692,0.9358,0.0152,0.0,82.45,-0.37,-1.03,81.1
118,19.374,s2_east_t1_move,0.0364,0.1222,-1.0211,-0.0679,-0.0069,0.4061,0.9332,0.0163,0.0,87.96,-0.23,-1.11,97.07
119,19.4876,s2_east_t1_move,0.0994,-0.0937,-1.0171,0.0111,0.0315,-0.0597,0.9411,0.0263,0.0,87.46,-0.26,-0.98,1.02
120,19.7884,s2_east_t1_move,-0.0487,0.0585,-1.0181,-0.0055,-0.0107,-0.0242,0.9522,0.0452,0.0,87.59,-0.23,-1.07,177.56
121,19.9948,s2_east_t1_move,-0.0835,-0.0254,-0.9996,-0.037,0.0071,0.0631,0.965,0.0642,0.0,87.43,-0.23,-1.06,98.95
122,20.1081,s2_east_t1_move,-0.0626,0.0843,-1.0078,-0.0049,0.007,0.0168,0.9743,0.0868,0.0,87.45,-0.25,-1.01,0.0
123,20.2273,s2_east_t1_move,0.0922,-0.0476,-1.0166,-0.0041,-0.0033,-0.0182,0.9806,0.109,0.0,87.51,-0.24,-0.95,0.0
124,20.3557,s2_east_t1_move,0.0922,-0.0476,-1.0166,-0.0041,-0.0033,-0.0182,0.9806,0.109,0.0,87.51,-0.24,-0.95,8.09
125,20.5221,s2_east_t1_move,0.0266,0.0286,-1.0011,0.0025,0.0143,-0.0478,0.9872,0.1306,0.0,87.43,-0.2,-0.94,50.96
126,20.8091,s2_east_t1_move,-0.1157,0.0408,-1.0102,-0.0023,0.0036,-0.0061,0.993,0.1539,0.0,87.51,-0.2,-0.9,177.48
127,21.0123,s2_east_t1_move,-0.065,0.0145,-1.0166,-0.0112,-0.0103,0.0056,0.9973,0.1818,0.0,87.44,-0.28,-0.94,96.21
128,21.1372,s2_east_t1_move,0.0787,0.0272,-1.0277,-0.0103,-0.0067,-0.0414,1.0002,0.2083,0.0,87.49,-0.33,-0.89,16.11
129,21.2598,s2_east_t1_move,0.0024,0.0017,-1.0081,-0.0257,0.0121,0.0124,1.0013,0.233,0.0,87.54,-0.22,-0.91,15.95
130,21.3651,s2_east_t1_move,-0.0873,0.0215,-1.001,0.0572,-0.0031,-0.0127,1.0017,0.2487,0.0,87.49,-0.19,-0.93,0.0
131,21.4947,s2_east_t1_move,-0.1184,0.022,-0.9953,0.0056,-0.0047,-0.0177,1.0002,0.2779,0.0,87.46,-0.15,-0.94,6.49
132,21.6059,s2_east_t1_move,0.1221,0.0418,-1.0147,-0.0331,0.0237,0.0073,0.9986,0.2877,0.0,87.61,-0.04,-0.93,0.0
133,21.7362,s2_east_t1_move,-0.0703,0.0311,-1.0325,-0.0193,-0.0226,-0.0868,0.9986,0.2877,0.0,87.61,-0.04,-0.93,16.27
134,22.0314,s2_east_t1_move,0.011,0.0146,-1.0149,-0.0113,0.0171,0.0253,0.9966,0.3178,0.0,87.56,0.03,-0.99,176.69
135,22.1728,s2_east_t1_move,0.0746,0.0034,-1.0005,0.0218,0.028,0.0135,0.9909,0.3638,0.0,87.53,0.21,-1.06,16.53
136,22.2973,s2_east_t1_move,-0.0537,-0.0032,-1.018,-0.0163,-0.0371,-0.0056,0.9894,0.3797,0.0,87.45,0.17,-1.08,4.53
137,22.4073,s2_east_t1_move,-0.0077,0.0038,-1.016,-0.0145,0.0159,-0.0037,0.9879,0.3903,0.0,87.48,0.22,-1.09,0.0
138,22.5307,s2_east_t1_move,-0.0367,-0.009,-1.0277,-0.0468,-0.0014,-0.0076,0.983,0.4173,0.0,87.48,0.26,-1.13,0.0
139,22.6465,s2_east_t1_move,-0.0367,-0.009,-1.0277,-0.0468,-0.0014,-0.0076,0.983,0.4173,0.0,87.48,0.26,-1.13,0.0
140,22.7682,s2_east_t1_move,0.0056,0.0097,-1.0073,-0.0034,-0.0031,-0.0364,0.9781,0.4416,0.0,87.42,0.26,-1.05,0.0
141,22.8875,s2_east_t1_move,-0.0071,0.0637,-1.026,-0.016,0.0002,-0.0697,0.9772,0.4536,0.0,87.46,0.28,-1.18,0.0
142,23.2613,s2_east_t1_stop,0.0124,-0.0117,-1.0252,-0.0163,0.0005,0.0178,0.9714,0.4772,0.0,87.57,0.26,-1.1,250.11
143,23.475,s2_east_t1_stop,-0.0216,-0.0026,-1.0119,0.0104,-0.0065,-0.0091,0.9721,0.4989,0.0,87.6,0.23,-1.03,99.17
144,23.5934,s2_east_t1_stop,-0.0151,0.0161,-1.0085,0.0057,0.001,-0.0149,0.9731,0.5185,0.0,87.54,0.23,-1.03,15.98
145,23.7085,s2_east_t1_stop,-0.0151,0.0161,-1.0085,0.0057,0.001,-0.0149,0.9731,0.5185,0.0,87.54,0.23,-1.03,0.0
146,23.8283,s2_east_t1_stop,-0.016,0.0074,-1.0101,-0.0042,-0.0018,0.0022,0.9736,0.5218,0.0,87.55,0.23,-1.01,0.0
147,23.9503,s2_east_t1_stop,-0.0006,0.0078,-1.0104,-0.0042,0.0017,-0.0003,0.9733,0.5213,0.0,87.54,0.24,-1.02,0.0
148,24.0959,s2_east_t2_move,-0.0007,0.0068,-1.0107,-0.0035,0.0004,0.0018,0.9734,0.5195,0.0,87.54,0.25,-1.02,15.79
149,24.2213,s2_east_t2_move,0.0003,0.0073,-1.0117,-0.0076,0.0015,0.0,0.9735,0.5195,0.0,87.54,0.34,-1.03,20.42
150,24.3231,s2_east_t2_move,0.2179,0.0052,-1.0188,-0.0016,-0.0321,-0.0122,0.974,0.5289,0.0,87.54,0.15,-1.07,0.0
151,24.4591,s2_east_t2_move,-0.2025,0.0437,-0.986,0.009,0.0109,-0.0219,0.9749,0.5397,0.0,87.49,0.21,-1.01,15.69
152,24.5664,s2_east_t2_move,0.0162,0.0179,-1.0205,-0.0095,-0.0268,0.0143,0.9762,0.5541,0.0,87.67,0.14,-0.99,0.0
153,24.6864,s2_east_t2_move,-0.1012,0.018,-1.0063,0.0072,0.0073,0.0042,0.9762,0.5541,0.0,87.67,0.14,-0.99,0.0
154,24.8195,s2_east_t2_move,0.1502,-0.0203,-1.0173,-0.008,0.0048,-0.0314,0.9776,0.5725,0.0,87.56,0.17,-0.98,15.67
155,24.9398,s2_east_t2_move,-0.1167,0.0521,-1.0008,0.0073,-0.0051,-0.0276,0.9776,0.5725,0.0,87.56,0.17,-0.98,15.85
156,25.0548,s2_east_t2_move,0.0359,-0.0212,-1.0289,-0.0069,0.0092,0.0153,0.9784,0.5844,0.0,87.49,0.16,-0.85,9.28
157,25.1669,s2_east_t2_move,0.0904,-0.0019,-1.0092,-0.0237,-0.0147,0.0189,0.9793,0.5979,0.0,87.57,0.1,-0.92,0.0
158,25.2854,s2_east_t2_move,0.1882,0.0194,-1.0177,-0.0156,0.0042,-0.0096,0.9792,0.6121,0.0,87.46,0.1,-0.85,1.32
159,25.4095,s2_east_t2_move,-0.0553,-0.0074,-1.0059,-0.0048,0.0215,0.0316,0.9804,0.621,0.0,87.5,0.09,-0.89,0.0
160,25.5662,s2_east_t2_move,0.1389,0.0423,-1.0343,0.0672,-0.0482,-0.0812,0.9806,0.6255,0.0,87.56,0.19,-0.93,35.71
161,25.6964,s2_east_t2_move,-0.1331,0.0291,-1.0081,-0.0147,-0.0031,0.0149,0.9813,0.6399,0.0,87.55,0.03,-0.81,15.74
162,25.8123,s2_east_t2_move,0.0038,0.0326,-1.0277,0.0321,-0.0423,-0.0392,0.9815,0.6446,0.0,87.57,0.09,-0.84,8.0
163,25.9314,s2_east_t2_move,-0.0902,0.011,-1.0117,-0.0028,0.0118,0.0209,0.9818,0.6658,0.0,87.53,0.07,-0.85,0.0
164,26.0589,s2_east_t2_move,0.1141,0.0233,-1.0136,-0.013,0.0027,-0.0062,0.9817,0.6706,0.0,87.53,0.07,-0.85,7.92
165,26.1725,s2_east_t2_move,0.0421,0.0103,-1.0047,-0.0224,0.0294,0.0103,0.9821,0.6904,0.0,87.5,0.03,-0.85,0.0
166,26.5481,s2_east_t2_move,0.0421,0.0103,-1.0047,-0.0224,0.0294,0.0103,0.9821,0.6904,0.0,87.59,0.1,-0.89,254.31
167,26.7502,s2_east_t2_move,-0.0899,0.0123,-1.0024,0.0095,-0.0333,0.0232,0.9839,0.7285,0.0,87.61,0.03,-0.8,95.72
168,26.9417,s2_east_t2_move,0.0504,0.0167,-1.0148,0.0066,-0.0188,-0.0314,0.9842,0.7397,0.0,87.63,0.09,-0.8,87.17
169,27.0771,s2_east_t2_move,-0.094,0.0402,-1.003,0.0158,0.009,-0.0076,0.9861,0.7602,0.0,87.48,-0.01,-0.76,16.08
170,27.1985,s2_east_t2_move,-0.115,-0.0167,-1.0059,-0.0012,-0.0123,0.0282,0.988,0.7804,0.0,87.49,-0.05,-0.8,15.81
171,27.318,s2_east_t2_move,0.0554,0.0019,-1.0058,-0.0016,0.0319,0.0114,0.9882,0.7857,0.0,87.52,0.01,-0.74,13.88
172,27.5645,s2_east_t2_move,-0.1043,-0.0042,-1.0101,0.0078,0.016,0.018,0.9894,0.8046,0.0,87.47,-0.07,-0.78,130.57
173,27.7011,s2_east_t2_move,-0.1849,-0.0085,-1.0067,0.0071,-0.0125,0.0056,0.9912,0.8274,0.0,87.61,-0.03,-0.74,22.17
174,27.9699,s2_east_t2_move,0.1189,0.004,-1.0123,-0.0148,0.0149,0.0014,0.9915,0.831,0.0,87.53,-0.11,-0.66,157.44
175,28.3813,s2_east_t2_move,0.1778,0.0188,-1.0201,0.0068,-0.0151,0.0004,0.9918,0.8641,0.0,87.65,-0.17,-0.6,288.58
176,28.5935,s2_east_t2_move,0.0544,0.0042,-0.9893,-0.007,-0.004,-0.013,0.9936,0.8967,0.0,87.52,-0.16,-0.57,95.58
177,28.7086,s2_east_t2_move,-0.0752,0.0233,-1.0102,-0.0264,0.0052,-0.0045,0.994,0.9283,0.0,87.55,-0.07,-0.58,2.31
178,28.8283,s2_east_t2_move,-0.0206,0.0243,-1.0117,-0.0108,0.0255,0.0169,0.9939,0.9328,0.0,87.41,-0.03,-0.57,0.0
179,28.9493,s2_east_t2_move,-0.097,0.0246,-1.0156,-0.0224,0.0072,-0.091,0.9921,0.9587,0.0,87.78,-0.07,-0.54,0.0
180,29.0723,s2_east_t2_stop,0.0765,0.0252,-1.0086,-0.026,0.0281,-0.0295,0.9922,0.9685,0.0,87.52,-0.02,-0.57,4.6
181,29.1895,s2_east_t2_stop,0.0052,-0.0285,-1.0063,-0.0124,0.0013,0.0296,0.9922,0.9685,0.0,87.41,-0.0,-0.55,0.0
182,29.6024,s2_east_t2_stop,0.0052,-0.0285,-1.0063,-0.0124,0.0013,0.0296,0.9928,0.9823,0.0,87.47,0.0,-0.6,289.38
183,29.7126,s2_east_t2_stop,-0.0161,-0.004,-1.0217,-0.0053,0.0031,0.0064,0.9948,1.0257,0.0,87.4,0.08,-0.52,0.0
184,29.8319,s2_east_t2_stop,-0.0161,-0.004,-1.0217,-0.0053,0.0031,0.0064,0.9948,1.0257,0.0,87.4,0.08,-0.52,0.0
185,29.9451,s2_east_t2_stop,-0.0204,0.0074,-1.0113,-0.0069,0.0016,0.0005,0.9955,1.0293,0.0,87.39,0.08,-0.53,0.0
186,30.0769,s2_east_turn_right,-0.0078,0.0067,-1.0101,-0.0016,0.0017,0.0017,0.9957,1.0299,0.0,87.37,0.06,-0.51,0.0
187,30.1983,s2_east_turn_right,-0.0078,0.0067,-1.0101,-0.0016,0.0017,0.0017,0.9957,1.0299,0.0,87.37,0.06,-0.51,0.0
188,30.3362,s2_east_turn_right,0.0171,-0.0202,-1.0105,-0.0201,-0.0111,0.5469,0.998,1.028,0.0,91.91,0.08,-0.5,16.18
189,30.4593,s2_east_turn_right,0.0111,0.0275,-1.018,0.0208,-0.0301,0.709,0.9988,1.0288,0.0,95.68,0.07,-0.55,15.83
190,30.5802,s2_east_turn_right,-0.0081,-0.0019,-1.0114,0.0205,-0.0129,0.7144,0.9984,1.0303,0.0,99.66,0.03,-0.51,15.16
191,30.6885,s2_east_turn_right,0.0275,0.029,-1.0366,0.0062,-0.0419,0.8047,0.9979,1.0298,0.0,110.64,0.03,-0.53,2.15
192,30.8078,s2_east_turn_right,0.0275,0.029,-1.0366,0.0062,-0.0419,0.8047,0.9979,1.0298,0.0,110.64,0.03,-0.53,0.0
193,30.9293,s2_east_turn_right,0.0173,-0.0121,-1.0205,-0.0179,-0.0193,0.7984,0.9978,1.0304,0.0,115.0,0.01,-0.5,0.0
194,31.066,s2_east_turn_right,0.0148,0.0279,-1.0119,-0.0175,-0.0287,0.7833,0.9971,1.0312,0.0,123.93,-0.06,-0.47,16.26
195,31.1874,s2_east_turn_right,0.0131,-0.0248,-0.9984,0.0164,0.0066,0.7858,0.9967,1.0297,0.0,132.89,-0.05,-0.41,0.0
196,31.3123,s2_east_turn_right,0.0131,-0.0248,-0.9984,0.0164,0.0066,0.7858,0.9967,1.0297,0.0,132.89,-0.05,-0.41,0.0
197,31.5969,s2_east_turn_right,0.0217,0.0241,-1.0183,-0.0183,-0.0077,0.8044,0.9971,1.0305,0.0,137.24,-0.11,-0.36,160.75
198,31.712,s2_east_turn_right,0.0184,-0.0075,-1.0012,-0.0109,0.015,0.8713,0.9965,1.0303,0.0,155.56,-0.06,-0.45,0.0
199,31.8642,s2_east_turn_right,-0.0149,0.0192,-1.0342,0.0198,-0.0124,0.7307,0.9959,1.0307,0.0,155.56,-0.06,-0.45,31.96
200,31.9979,s2_east_turn_right,0.005,0.0103,-1.0187,0.0013,-0.0223,0.7812,0.9965,1.0309,0.0,164.45,-0.04,-0.45,15.9
201,32.1064,s3_south_t1_move,0.0084,0.0061,-1.0163,-0.0043,-0.0017,0.8154,0.9953,1.0309,0.0,173.49,-0.02,-0.44,0.0
202,32.2398,s3_south_t1_move,0.0084,0.0061,-1.0163,-0.0043,-0.0017,0.8154,0.9953,1.0309,0.0,173.49,-0.02,-0.44,15.99
203,32.3586,s3_south_t1_move,0.0806,-0.0151,-1.0116,-0.0134,0.0096,-0.1046,0.9901,1.0286,0.0,175.06,0.02,-0.5,15.93
204,32.4985,s3_south_t1_move,0.0302,-0.0023,-1.0102,0.0015,0.0092,0.0472,0.9835,1.0302,0.0,174.88,0.01,-0.48,19.33
205,32.6116,s3_south_t1_move,-0.0091,0.0148,-1.0091,0.0,0.0008,-0.003,0.9794,1.0308,0.0,175.04,0.01,-0.45,8.01
206,32.7384,s3_south_t1_move,0.0097,0.011,-1.0106,0.0001,0.0017,-0.0045,0.9751,1.0308,0.0,175.08,0.01,-0.45,15.81
207,32.8579,s3_south_t1_move,-0.0004,0.0118,-1.0085,-0.0114,0.0007,-0.008,0.9707,1.0302,0.0,175.06,0.0,-0.47,15.93
208,32.9792,s3_south_t1_move,0.0161,-0.0009,-1.0093,-0.009,0.001,0.024,0.9663,1.0292,0.0,175.14,0.0,-0.5,15.76
209,33.0896,s3_south_t1_move,-0.0097,0.0223,-1.0098,-0.0023,-0.0021,-0.028,0.9602,1.0285,0.0,175.14,0.0,-0.5,5.99
210,33.6075,s3_south_t1_move,-0.0121,-0.0186,-1.012,-0.002,-0.0096,0.0116,0.9505,1.0258,0.0,174.97,-0.0,-0.48,395.68
211,33.7351,s3_south_t1_move,-0.0212,-0.0006,-1.0057,0.0136,0.0039,-0.0736,0.9184,1.0197,0.0,175.25,0.01,-0.53,9.18
212,33.8499,s3_south_t1_move,-0.0212,-0.0006,-1.0057,0.0136,0.0039,-0.0736,0.9184,1.0197,0.0,174.99,0.02,-0.52,0.0
213,33.969,s3_south_t1_move,0.0337,0.036,-1.0136,-0.0013,-0.0123,0.0072,0.9077,1.0157,0.0,175.08,0.02,-0.51,0.0
214,34.1084,s3_south_t1_move,-0.0375,-0.0443,-1.0135,0.0006,-0.0057,-0.0298,0.9006,1.0135,0.0,174.94,-0.01,-0.46,18.08
215,34.236,s3_south_t1_move,0.0353,0.0306,-1.0096,-0.015,0.0027,0.031,0.892,1.0117,0.0,174.94,-0.01,-0.46,9.57
216,34.5349,s3_south_t1_move,0.0079,0.002,-1.008,-0.0159,0.0042,0.034,0.8841,1.0089,0.0,175.21,-0.03,-0.5,192.22
217,35.1455,s3_south_t1_move,-0.0114,0.0061,-1.0098,-0.0049,0.0007,0.0116,0.8634,1.0058,0.0,175.04,-0.08,-0.51,506.42
218,35.2745,s3_south_t1_move,0.0075,0.0057,-1.0081,0.0001,0.0112,0.005,0.8277,0.9969,0.0,175.03,-0.17,-0.53,15.98
219,35.3888,s3_south_t1_move,0.0708,0.0363,-1.0153,-0.0038,-0.0072,-0.0263,0.8055,0.9937,0.0,175.09,-0.15,-0.55,0.0
220,35.5203,s3_south_t1_move,-0.0349,0.0356,-1.0007,-0.0171,-0.0103,0.0103,0.8055,0.9937,0.0,175.09,-0.15,-0.55,13.33
221,35.7577,s3_south_t1_move,-0.026,-0.0223,-1.0056,-0.0201,0.005,-0.0084,0.7872,0.9912,0.0,175.12,-0.28,-0.54,127.22
222,35.9667,s3_south_t1_move,0.0434,0.0063,-1.0148,-0.0118,-0.0107,0.0035,0.7691,0.9896,0.0,175.02,-0.3,-0.52,94.8
223,36.1691,s3_south_t1_move,0.0278,-0.0602,-1.0115,-0.0244,0.0004,-0.0283,0.7516,0.9896,0.0,175.15,-0.38,-0.44,96.52
224,36.2999,s3_south_t1_move,-0.0427,-0.0064,-1.0195,-0.018,-0.0023,-0.0168,0.7319,0.9891,0.0,175.02,-0.35,-0.54,21.65
225,36.4174,s3_south_t1_move,0.0515,0.0052,-1.0007,-0.01,-0.0096,-0.0123,0.7219,0.9893,0.0,175.01,-0.4,-0.48,11.18
226,36.5314,s3_south_t1_move,0.0515,0.0052,-1.0007,-0.01,-0.0096,-0.0123,0.7053,0.9904,0.0,175.09,-0.41,-0.56,0.0
227,36.6523,s3_south_t1_move,0.1283,0.0213,-1.0139,-0.0108,0.0206,0.0521,0.6867,0.9903,0.0,174.9,-0.44,-0.49,0.0
228,36.9798,s3_south_t1_move,0.1362,-0.0004,-1.0308,-0.0429,-0.0268,0.0053,0.6482,0.9926,0.0,175.15,-0.39,-0.49,206.26
229,37.0985,s3_south_t1_move,-0.1863,0.0029,-0.9929,0.0011,0.0215,-0.0288,0.6365,0.9938,0.0,174.96,-0.43,-0.5,4.44
230,37.5985,s3_south_t1_move,0.1549,-0.0286,-1.0217,-0.0221,-0.0037,0.0585,0.6293,0.9955,0.0,175.1,-0.34,-0.53,397.49
231,37.7112,s3_south_t1_move,0.1104,0.0464,-1.0164,-0.007,0.0155,-0.046,0.5697,1.0055,0.0,175.09,-0.42,-0.57,0.0
232,37.8332,s3_south_t1_move,-0.0197,-0.0549,-1.0557,-0.0277,-0.0185,-0.0182,0.5697,1.0055,0.0,175.09,-0.42,-0.57,0.0
233,37.9517,s3_south_t1_move,0.1315,-0.002,-1.0176,0.0138,0.0126,-0.0569,0.5331,1.0178,0.0,174.95,-0.55,-0.53,0.0
234,38.0697,s3_south_t1_stop,-0.1395,-0.0026,-1.001,-0.0352,0.0144,0.026,0.5209,1.0245,0.0,175.06,-0.48,-0.55,0.0
235,38.1883,s3_south_t1_stop,-0.1395,-0.0026,-1.001,-0.0352,0.0144,0.026,0.5209,1.0245,0.0,175.06,-0.48,-0.55,0.0
236,38.3069,s3_south_t1_stop,0.0519,0.0123,-1.0108,-0.0081,0.0176,0.0001,0.5157,1.0283,0.0,175.11,-0.48,-0.51,0.0
237,38.4277,s3_south_t1_stop,-0.0129,0.0147,-1.0053,-0.0007,0.007,-0.0239,0.488,1.0323,0.0,175.25,-0.5,-0.49,0.0
238,38.559,s3_south_t1_stop,-0.0185,0.0031,-1.0112,-0.0056,-0.0089,-0.0014,0.4775,1.0336,0.0,175.23,-0.54,-0.48,10.86
239,38.831,s3_south_t1_stop,-0.0179,-0.0015,-1.0122,-0.0088,-0.0032,0.0028,0.4719,1.034,0.0,175.25,-0.55,-0.49,159.12
240,38.9548,s3_south_t1_stop,-0.0279,0.0135,-1.0144,0.0005,0.0001,-0.0125,0.4622,1.0349,0.0,175.28,-0.53,-0.55,15.89
241,39.072,s3_south_t2_move,-0.0279,0.0135,-1.0144,0.0005,0.0001,-0.0125,0.4593,1.0344,0.0,175.13,-0.54,-0.52,0.0
242,39.1992,s3_south_t2_move,-0.0179,-0.0199,-1.0154,-0.006,0.0089,-0.0703,0.4586,1.0326,0.0,174.63,-0.5,-0.52,15.97
243,39.3081,s3_south_t2_move,0.1871,0.0663,-1.0116,-0.0018,0.0206,-0.0373,0.4439,1.0293,0.0,174.48,-0.47,-0.52,0.0
244,39.4301,s3_south_t2_move,0.0203,0.0605,-1.01,-0.0113,-0.043,0.0454,0.426,1.0277,0.0,174.2,-0.6,-0.49,0.0
245,39.5508,s3_south_t2_move,0.0835,-0.0216,-1.0094,0.0036,-0.0036,0.1938,0.4012,1.027,0.0,174.6,-0.58,-0.54,2.51
246,39.6738,s3_south_t2_move,-0.0995,0.0087,-1.0001,0.0002,-0.003,-0.0716,0.3884,1.0241,0.0,174.6,-0.58,-0.54,0.0
247,39.792,s3_south_t2_move,-0.0995,0.0087,-1.0001,0.0002,-0.003,-0.0716,0.3884,1.0241,0.0,174.4,-0.59,-0.47,0.0
248,40.0575,s3_south_t2_move,0.1623,0.0892,-1.0168,-0.0219,-0.002,-0.0149,0.3265,1.0191,0.0,174.65,-0.53,-0.5,144.4
249,40.1707,s3_south_t2_move,0.1623,0.0892,-1.0168,-0.0219,-0.002,-0.0149,0.3265,1.0191,0.0,174.38,-0.56,-0.59,0.0
250,40.2894,s3_south_t2_move,0.0022,-0.0132,-1.0233,-0.0123,0.0076,0.0173,0.2972,1.0184,0.0,174.39,-0.54,-0.6,0.0
251,40.4281,s3_south_t2_move,0.0251,0.0922,-1.0109,-0.0022,0.0008,-0.021,0.277,1.0145,0.0,174.37,-0.58,-0.59,16.41
252,40.6738,s3_south_t2_move,-0.112,-0.0836,-1.1153,-0.0379,-0.0163,0.0264,0.2637,1.0151,0.0,174.67,-0.5,-0.64,120.94
253,40.8733,s3_south_t2_move,-0.0445,-0.0927,-1.0057,0.0457,0.0269,0.0186,0.227,1.0114,0.0,174.21,-0.34,-0.54,80.02
254,41.0027,s3_south_t2_move,-0.0254,-0.0123,-1.0055,-0.0039,0.0226,-0.0241,0.1773,1.0111,0.0,174.49,-0.06,-0.58,16.1
255,41.1398,s3_south_t2_move,-0.0254,-0.0123,-1.0055,-0.0039,0.0226,-0.0241,0.1773,1.0111,0.0,174.49,-0.06,-0.58,15.85
256,41.2593,s3_south_t2_move,0.0465,0.1042,-1.0098,-0.0215,0.0178,-0.0819,0.163,1.0119,0.0,174.38,0.03,-0.6,15.82
257,41.3831,s3_south_t2_move,-0.0317,0.0259,-1.003,0.0044,-0.0001,0.0081,0.132,1.0107,0.0,174.32,0.16,-0.54,16.0
258,41.5205,s3_south_t2_move,0.0278,-0.0249,-1.0078,-0.0081,0.0113,-0.0032,0.1038,1.0116,0.0,174.42,0.25,-0.51,31.89
259,41.6398,s3_south_t2_move,0.0278,-0.0249,-1.0078,-0.0081,0.0113,-0.0032,0.1038,1.0116,0.0,174.42,0.25,-0.51,9.63
260,41.898,s3_south_t2_move,-0.0333,-0.0445,-1.0044,0.0109,0.0088,0.0242,0.0783,1.0127,0.0,174.37,0.29,-0.51,143.84
261,42.0976,s3_south_t2_move,-0.0977,0.0417,-1.0232,0.0276,-0.0195,-0.0369,0.0553,1.0151,0.0,174.45,0.28,-0.49,80.67
262,42.5165,s3_south_t2_move,-0.0424,0.0337,-1.0077,-0.013,0.007,-0.0392,0.0377,1.0176,0.0,174.48,0.31,-0.59,300.34
263,42.6253,s3_south_t2_move,-0.0003,0.0054,-1.0069,-0.0214,0.014,0.0686,0.0001,1.0297,0.0,174.65,0.32,-0.55,0.0
264,42.7588,s3_south_t2_move,-0.0252,0.01,-1.0046,0.0046,0.0185,-0.0593,-0.0065,1.0334,0.0,174.53,0.37,-0.56,12.19
265,42.8651,s3_south_t2_stop,-0.002,0.0645,-1.0114,-0.0105,0.0041,0.0449,-0.0109,1.0347,0.0,174.36,0.31,-0.54,0.0
266,42.9887,s3_south_t2_stop,0.0008,0.0282,-1.0108,-0.0017,0.0041,-0.0096,-0.0157,1.0409,0.0,174.68,0.34,-0.58,0.0
267,43.1087,s3_south_t2_stop,0.0008,0.0282,-1.0108,-0.0017,0.0041,-0.0096,-0.0185,1.0429,0.0,174.79,0.35,-0.58,0.0
268,43.2281,s3_south_t2_stop,-0.0056,0.0057,-1.0094,-0.0032,0.0021,-0.0112,-0.0211,1.0427,0.0,174.8,0.36,-0.58,0.0
269,43.354,s3_south_t2_stop,-0.0101,0.0003,-1.0127,-0.005,-0.0004,-0.0014,-0.0221,1.0426,0.0,174.82,0.36,-0.59,0.0
270,43.4678,s3_south_t2_stop,0.0052,0.0019,-1.01,-0.0057,0.0013,0.0025,-0.0217,1.0426,0.0,174.82,0.36,-0.58,0.0
271,43.59,s3_south_t2_stop,0.0083,0.0041,-1.0113,-0.0048,0.001,0.0017,-0.0192,1.0426,0.0,174.82,0.36,-0.58,0.0
272,43.7088,s3_south_t2_stop,0.0078,0.0018,-1.0103,-0.0035,-0.0,0.0034,-0.0189,1.0427,0.0,174.84,0.36,-0.58,0.0
273,43.8665,s3_south_turn_right,0.0082,0.0022,-1.0115,-0.0052,0.0009,0.0009,-0.0187,1.0426,0.0,174.83,0.36,-0.58,34.83
274,44.1515,s3_south_turn_right,0.0039,0.0036,-1.0102,-0.0067,0.0009,0.0001,-0.0185,1.0424,0.0,174.83,0.36,-0.58,175.79
275,44.2898,s3_south_turn_right,0.0215,0.0029,-1.0176,-0.0018,-0.0122,0.7395,-0.0162,1.044,0.0,-178.57,0.37,-0.52,15.83
276,44.417,s3_south_turn_right,0.0091,0.0149,-1.0084,0.0161,-0.0213,0.7271,-0.0162,1.0438,0.0,-165.99,0.35,-0.42,16.16
277,44.54,s3_south_turn_right,0.0138,0.0305,-1.0367,0.0164,0.007,0.7785,-0.0163,1.0428,0.0,-161.43,0.41,-0.46,15.86
278,44.6602,s3_south_turn_right,0.0138,0.0305,-1.0367,0.0164,0.007,0.7785,-0.0163,1.0428,0.0,-161.43,0.41,-0.46,8.67
279,44.8004,s3_south_turn_right,0.0119,0.0214,-1.0178,0.0053,-0.0177,0.6917,-0.0168,1.0423,0.0,-152.75,0.35,-0.34,23.8
280,44.908,s3_south_turn_right,0.0092,-0.0131,-1.0178,-0.0381,-0.0212,0.8376,-0.0171,1.042,0.0,-148.08,0.32,-0.34,1.89
281,45.0417,s3_south_turn_right,-0.0027,0.0002,-1.0051,0.0188,0.0104,0.766,-0.0174,1.0415,0.0,-139.29,0.27,-0.2,15.68
282,45.1493,s3_south_turn_right,-0.0027,0.0002,-1.0051,0.0188,0.0104,0.766,-0.0174,1.0415,0.0,-139.29,0.27,-0.2,0.0
283,45.2701,s3_south_turn_right,0.0223,0.0315,-1.016,0.0046,-0.0162,0.7631,-0.0171,1.0414,0.0,-134.77,0.25,-0.19,1.02
284,45.414,s3_south_turn_right,0.0104,-0.0118,-1.017,-0.0107,-0.0057,0.7843,-0.0172,1.0416,0.0,-130.23,0.25,-0.15,23.85
285,45.5264,s3_south_turn_right,0.0209,0.0035,-0.9889,-0.015,0.0169,0.8586,-0.0175,1.0416,0.0,-121.37,0.15,-0.09,0.0
286,45.6486,s3_south_turn_right,-0.0223,0.0013,-0.997,0.0401,-0.0368,0.764,-0.0168,1.0411,0.0,-112.3,0.09,-0.03,0.0
287,45.7712,s3_south_turn_right,0.0182,0.0016,-1.0217,-0.0195,-0.0055,0.7177,-0.0175,1.0403,0.0,-105.58,0.07,-0.06,2.01
288,45.8884,s3_south_turn_right,-0.0053,-0.0377,-1.0031,-0.0342,0.013,0.8645,-0.0186,1.0404,0.0,-101.03,0.07,-0.13,0.0
289,46.0202,s4_west_t1_move,-0.0053,-0.0377,-1.0031,-0.0342,0.013,0.8645,-0.0186,1.0404,0.0,-101.03,0.07,-0.13,8.46
290,46.1446,s4_west_t1_move,0.0233,0.0691,-1.0025,-0.0004,0.0121,-0.0151,-0.0147,1.0385,0.0,-94.71,0.09,-0.11,7.67
291,46.278,s4_west_t1_move,0.0908,-0.0361,-1.0146,-0.0165,-0.0085,-0.0319,-0.0178,1.0291,0.0,-94.71,0.09,-0.11,19.07
292,46.3985,s4_west_t1_move,0.0908,-0.0361,-1.0146,-0.0165,-0.0085,-0.0319,-0.0178,1.0291,0.0,-94.76,-0.03,-0.14,17.51
293,46.5302,s4_west_t1_move,0.1372,0.0154,-1.011,-0.0015,-0.0019,-0.0038,-0.0207,1.0222,0.0,-94.76,0.03,-0.14,16.72
294,46.6597,s4_west_t1_move,-0.0933,-0.0352,-1.0173,-0.0153,-0.016,0.0528,-0.0243,1.003,0.0,-94.5,-0.02,-0.12,15.99
295,46.765,s4_west_t1_move,0.0041,0.0122,-1.0066,0.0132,-0.0006,-0.02,-0.0267,0.9844,0.0,-94.78,0.02,-0.03,0.0
296,46.9029,s4_west_t1_move,0.0043,-0.025,-1.0011,-0.0513,0.032,0.0542,-0.0291,0.9678,0.0,-94.83,0.06,-0.1,15.76
297,47.0169,s4_west_t1_move,-0.0203,-0.0126,-1.0146,0.0121,-0.0021,0.0128,-0.0291,0.9678,0.0,-94.83,0.06,-0.1,8.65
298,47.1424,s4_west_t1_move,0.0455,-0.0151,-1.008,-0.0248,0.0111,0.0331,-0.0307,0.9436,0.0,-94.82,0.11,-0.14,10.09
299,47.2573,s4_west_t1_move,0.0713,-0.0,-1.012,-0.008,0.007,0.0006,-0.0311,0.9201,0.0,-94.71,0.13,-0.04,6.33
300,47.3859,s4_west_t1_move,-0.0349,0.0571,-1.0089,0.0252,-0.0101,-0.0716,-0.0302,0.9073,0.0,-94.72,0.17,-0.13,16.1
301,47.5159,s4_west_t1_move,-0.0178,-0.0269,-1.016,-0.0098,0.0338,0.0734,-0.0304,0.8962,0.0,-94.75,0.16,-0.05,15.95
302,47.6402,s4_west_t1_move,0.0491,0.0139,-1.0032,0.0248,-0.0002,-0.025,-0.0305,0.8806,0.0,-94.74,0.24,-0.07,13.6
303,47.7538,s4_west_t1_move,-0.0754,-0.0389,-1.0093,-0.0101,0.0124,0.0627,-0.0301,0.8705,0.0,-94.82,0.24,-0.01,4.45
304,47.8759,s4_west_t1_move,-0.0333,-0.0022,-1.0179,-0.0089,0.0132,-0.0322,-0.0281,0.843,0.0,-94.73,0.31,-0.01,16.42
305,48.0435,s4_west_t1_move,-0.0333,-0.0022,-1.0179,-0.0089,0.0132,-0.0322,-0.0281,0.843,0.0,-94.73,0.35,-0.02,47.99
306,48.252,s4_west_t1_move,-0.1422,0.0205,-0.997,0.0064,0.0063,-0.0158,-0.0272,0.8162,0.0,-94.74,0.37,-0.06,96.62
307,48.4517,s4_west_t1_move,-0.0973,-0.0298,-1.0061,0.0302,0.0243,0.0026,-0.0234,0.7798,0.0,-94.59,0.45,-0.05,79.69
308,48.5791,s4_west_t1_move,0.17,0.0445,-1.0108,-0.0247,-0.0203,-0.0294,-0.0216,0.7738,0.0,-94.81,0.43,-0.19,16.08
309,48.6899,s4_west_t1_move,0.0736,0.0193,-1.0212,0.0011,0.0106,-0.0353,-0.0205,0.7479,0.0,-94.73,0.43,-0.25,0.0
310,48.8086,s4_west_t1_move,0.0736,0.0193,-1.0212,0.0011,0.0106,-0.0353,-0.0205,0.7479,0.0,-94.79,0.5,-0.21,0.0
311,48.9393,s4_west_t1_move,0.0371,0.0421,-1.0014,-0.0187,0.0056,-0.003,-0.0204,0.7358,0.0,-94.7,0.45,-0.27,16.3
312,49.0581,s4_west_t1_move,0.1135,-0.0214,-1.0129,-0.0043,0.0075,0.0433,-0.0202,0.7135,0.0,-94.65,0.51,-0.24,15.83
313,49.1792,s4_west_t1_move,-0.0688,0.0108,-1.0142,-0.0106,-0.0178,-0.0367,-0.0209,0.6985,0.0,-94.65,0.51,-0.24,15.83
314,49.3127,s4_west_t1_move,0.0897,0.0063,-1.0115,-0.0004,-0.0162,0.0116,-0.0214,0.6849,0.0,-94.68,0.5,-0.25,27.91
315,49.6885,s4_west_t1_move,-0.1361,0.0213,-1.0076,0.0016,0.0075,-0.0182,-0.024,0.6595,0.0,-94.77,0.41,-0.2,270.57
316,49.8275,s4_west_t1_move,0.0153,-0.005,-1.0233,-0.0325,-0.0001,0.0438,-0.0311,0.6289,0.0,-94.72,0.46,-0.28,32.12
317,49.9506,s4_west_t1_move,0.0431,-0.023,-1.0315,0.0173,-0.0094,0.0137,-0.0321,0.6168,0.0,-94.78,0.43,-0.15,0.0
318,50.298,s4_west_t1_move,-0.0119,-0.0133,-1.0071,0.0107,0.0118,0.0227,-0.0377,0.5964,0.0,-94.8,0.4,-0.19,225.82
319,50.4088,s4_west_t1_stop,-0.0127,0.0029,-1.0161,-0.0159,0.0071,0.0091,-0.0447,0.5612,0.0,-94.78,0.37,-0.12,0.0
320,50.5268,s4_west_t1_stop,-0.0263,-0.0055,-1.01,0.0001,-0.0083,0.0079,-0.0457,0.5455,0.0,-94.76,0.34,-0.09,0.0
321,50.6595,s4_west_t1_stop,-0.0144,0.0018,-1.0101,0.0013,0.0021,-0.0019,-0.0457,0.5455,0.0,-94.78,0.32,-0.09,9.49
322,50.7795,s4_west_t1_stop,-0.0152,0.0043,-1.0107,-0.0016,-0.0002,0.0015,-0.0463,0.5402,0.0,-94.79,0.3,-0.06,7.31
323,50.9123,s4_west_t1_stop,-0.0142,0.0021,-1.0116,-0.0045,-0.0011,0.002,-0.0471,0.5345,0.0,-94.76,0.29,-0.05,15.89
324,51.0314,s4_west_t1_stop,-0.0118,0.0014,-1.0118,-0.0043,-0.0016,0.0022,-0.0478,0.533,0.0,-94.75,0.28,-0.05,0.0
325,51.3071,s4_west_t2_move,-0.0101,0.0003,-1.0125,-0.006,0.0016,0.002,-0.0478,0.5325,0.0,-94.75,0.29,-0.04,153.58
326,51.4205,s4_west_t2_move,0.0018,-0.0005,-1.0091,-0.0034,0.0067,0.0046,-0.0476,0.5323,0.0,-94.75,0.28,-0.05,0.0
327,51.5398,s4_west_t2_move,0.0018,-0.0005,-1.0091,-0.0034,0.0067,0.0046,-0.0475,0.532,0.0,-94.7,0.34,-0.07,6.69
328,51.7362,s4_west_t2_move,0.1329,0.0003,-1.0131,-0.0225,-0.0038,-0.0036,-0.0476,0.5212,0.0,-94.82,0.22,-0.13,79.12
329,51.9337,s4_west_t2_move,0.1651,0.0075,-1.0178,0.0298,-0.0053,0.0142,-0.0466,0.5114,0.0,-94.69,0.23,-0.05,80.61
330,52.0577,s4_west_t2_move,0.0619,-0.0027,-1.0084,0.0216,-0.0185,0.0196,-0.0502,0.4755,0.0,-94.99,0.23,-0.07,0.0
331,52.1978,s4_west_t2_move,0.0619,-0.0027,-1.0084,0.0216,-0.0185,0.0196,-0.0502,0.4755,0.0,-94.68,0.14,-0.04,16.15
332,52.3108,s4_west_t2_move,0.0709,-0.014,-1.0122,-0.0217,0.0121,-0.0019,-0.0507,0.459,0.0,-94.78,0.14,-0.0,8.42
333,52.4505,s4_west_t2_move,-0.0129,-0.0479,-1.0131,-0.0104,-0.0128,0.026,-0.0507,0.459,0.0,-94.78,0.14,-0.0,16.19
334,52.752,s4_west_t2_move,0.0728,0.0052,-1.0199,-0.0087,-0.0152,-0.0271,-0.0539,0.43,0.0,-94.74,0.2,-0.14,194.18
335,52.8714,s4_west_t2_move,0.0362,-0.0243,-1.0175,-0.0182,0.0105,-0.0051,-0.0558,0.4111,0.0,-94.76,0.16,-0.15,0.0
336,53.3784,s4_west_t2_move,-0.0067,0.005,-1.0191,-0.0117,0.0063,0.0024,-0.058,0.3914,0.0,-94.76,0.15,-0.12,385.6
337,53.4877,s4_west_t2_move,-0.0374,0.0197,-1.0156,0.0008,-0.0072,0.0067,-0.0633,0.3487,0.0,-94.69,0.18,-0.17,0.0
338,53.6086,s4_west_t2_move,0.015,0.0916,-1.0233,0.0044,-0.0123,-0.0623,-0.0669,0.3283,0.0,-94.75,0.19,-0.19,0.0
339,53.7394,s4_west_t2_move,0.015,0.0916,-1.0233,0.0044,-0.0123,-0.0623,-0.0669,0.3283,0.0,-94.75,0.19,-0.19,13.54
340,53.8594,s4_west_t2_move,0.0747,0.0024,-1.0049,-0.0634,0.0229,0.0344,-0.0693,0.3086,0.0,-94.71,0.18,-0.14,7.85
341,53.977,s4_west_t2_move,-0.0924,-0.0301,-1.0048,0.0086,-0.0013,0.0345,-0.0709,0.2954,0.0,-94.79,0.12,-0.14,16.25
342,54.0984,s4_west_t2_move,0.0938,0.0321,-1.0072,-0.015,0.0075,-0.0107,-0.0733,0.2881,0.0,-94.68,0.18,-0.16,15.75
343,54.2198,s4_west_t2_move,0.037,0.0083,-1.0168,-0.0048,0.0108,0.0738,-0.0769,0.2628,0.0,-94.88,0.13,-0.13,16.0
344,54.3408,s4_west_t2_move,0.037,0.0083,-1.0168,-0.0048,0.0108,0.0738,-0.0769,0.2628,0.0,-94.63,0.2,-0.1,15.69
345,54.7777,s4_west_t2_move,-0.0598,-0.0011,-1.0128,0.0006,0.0054,0.0162,-0.0791,0.2408,0.0,-94.76,0.16,-0.04,321.83
346,55.0139,s4_west_t2_move,0.0539,-0.0082,-1.0107,-0.0251,-0.0047,0.0303,-0.0837,0.1989,0.0,-94.66,0.11,-0.09,114.92
347,55.1297,s4_west_t2_move,0.1243,0.0101,-1.0134,0.0109,0.0058,0.0066,-0.0851,0.1825,0.0,-94.77,0.1,-0.12,0.0
348,55.2511,s4_west_t2_move,-0.0799,-0.016,-0.9947,0.007,0.0452,-0.0085,-0.0862,0.1624,0.0,-94.83,0.09,-0.18,0.0
349,55.376,s4_west_t2_move,-0.0799,-0.016,-0.9947,0.007,0.0452,-0.0085,-0.0862,0.1624,0.0,-94.83,0.09,-0.18,0.0
350,55.6225,s4_west_t2_move,-0.1973,-0.0032,-0.9993,-0.0159,0.003,-0.0045,-0.0879,0.1361,0.0,-94.67,-0.03,-0.23,130.15
351,55.758,s4_west_t2_move,-0.1501,0.0253,-0.9978,0.0195,0.0234,-0.0157,-0.0894,0.1138,0.0,-94.81,-0.01,-0.25,16.14
352,56.4484,s4_west_t2_stop,0.2253,-0.0201,-1.0113,-0.0094,0.002,0.001,-0.0902,0.0975,0.0,-94.79,0.09,-0.23,573.81
353,56.5652,s4_west_t2_stop,-0.0071,0.0006,-1.0096,-0.0023,-0.0003,0.0028,-0.091,0.0736,0.0,-94.78,-0.04,-0.22,0.0
354,56.7978,s4_west_t2_stop,0.004,0.005,-1.0094,-0.0063,-0.0001,0.0005,-0.0904,0.0766,0.0,-94.79,-0.04,-0.23,101.1
355,56.9219,s4_west_t2_stop,0.0023,0.0019,-1.0108,-0.0076,0.0021,0.0001,-0.0905,0.0766,0.0,-94.79,-0.04,-0.23,8.1
356,57.0267,s4_west_t2_stop,0.0083,0.0036,-1.0116,-0.0056,-0.0016,0.0025,-0.0906,0.0762,0.0,-94.78,-0.04,-0.22,0.0
357,57.1477,s4_west_t2_stop,-0.003,0.0026,-1.0114,-0.0025,0.0008,0.0008,-0.0907,0.0761,0.0,-94.79,-0.04,-0.22,0.0
358,57.2703,s4_west_t2_stop,-0.003,0.0026,-1.0114,-0.0025,0.0008,0.0008,-0.0907,0.0761,0.0,-94.79,-0.04,-0.22,0.0
359,57.4601,s4_west_turn_right,-0.005,0.0015,-1.0107,-0.0038,0.0,0.0014,-0.0907,0.076,0.0,-94.79,-0.04,-0.23,64.58
360,57.8019,s4_west_turn_right,-0.0019,0.0021,-1.0116,-0.0039,0.0023,0.0001,-0.0908,0.0755,0.0,-94.78,-0.04,-0.22,230.57
361,57.9401,s4_west_turn_right,-0.0106,0.0066,-1.0076,0.0105,0.0066,0.7374,-0.0933,0.075,0.0,-81.95,-0.09,-0.16,16.45
362,58.0855,s4_west_turn_right,0.0183,0.0094,-1.0237,-0.033,0.0222,0.7498,-0.0934,0.0746,0.0,-73.31,-0.15,-0.17,32.15
363,58.484,s4_west_turn_right,0.0146,0.0375,-1.0025,0.021,-0.0157,0.7535,-0.0934,0.0746,0.0,-73.31,-0.15,-0.17,290.32
364,58.6057,s4_west_turn_right,-0.0005,0.0411,-1.0076,-0.0043,-0.0021,0.7409,-0.0937,0.0743,0.0,-55.59,-0.23,-0.2,0.0
365,58.7389,s4_west_turn_right,0.0134,-0.0376,-1.0048,-0.0114,0.0022,0.8062,-0.092,0.0745,0.0,-46.69,-0.27,-0.19,15.75
366,58.859,s4_west_turn_right,-0.0242,-0.0195,-0.9807,0.0214,0.0068,0.7696,-0.0924,0.0736,0.0,-42.21,-0.32,-0.19,16.11
367,58.9789,s4_west_turn_right,-0.0242,-0.0195,-0.9807,0.0214,0.0068,0.7696,-0.0924,0.0736,0.0,-37.55,-0.31,-0.25,14.57
368,59.1014,s4_west_turn_right,0.0301,-0.0049,-1.0024,-0.0382,0.0134,0.8251,-0.0913,0.072,0.0,-28.61,-0.33,-0.36,15.91
369,59.2363,s4_west_turn_right,0.0301,-0.0049,-1.0024,-0.0382,0.0134,0.8251,-0.0913,0.072,0.0,-28.61,-0.33,-0.36,15.86
370,59.518,s4_west_turn_right,-0.0031,0.0011,-0.9835,0.0017,0.0158,0.7823,-0.0918,0.0719,0.0,-15.07,-0.35,-0.42,162.42
371,59.6326,complete,0.0041,0.0085,-1.0005,-0.0027,0.0054,0.7985,-0.0919,0.0725,0.0,-10.61,-0.35,-0.44,6.92
